ID,ResortName,Continent,Country,StateProvince,URL,Altitude,Easy,Intermediate,Difficult,Funicular,CirculatingRopewayGondola,Chairlift,T-barPlatterButton,SunkidMovingCarpet,Adult,Youth,Child,Currency,ResortSize,SlopeOfferingVariety,LiftsAndCableCars,SnowReliability,SlopePreparation,AccessParking,Orientation,Cleanliness,EnvironmentallyFriendly,StaffFriendliness,Restaurants,ApresSki,AccomodationsToLifts,FamiliesChildren,Beginners,Advanced,SnowParks,Cross-countryTrails,AerialTramwayReverseRopeway,RopeTowBeginnerLift,PeopleMover,CombinedGondolaChair,CogRailway,Helicopter,SnowCaterpillars,Latitude,Longitude
2,49-degrees-north-mountain-resort,North America,USA,Washington State,http://www.skiresort.info/ski-resort/49-degrees-north-mountain-resort/,1760,20,27,21,,,0,,,58,0,48,US Dollar,3.5,3.9,3,,,,,,,,,,,,,,,,,0,,,,,,48.3010972,-117.5629161
14,abenaki,North America,USA,New Hampshire,http://www.skiresort.info/ski-resort/abenaki/,250,0.5,0.3,0.2,,,,,,0,0,0,-,,,,,,,,,,,,,,,,,,,,,,,,,,43.611548,-71.229107
15,aberdeen-heli-prince-george,North America,Canada,British Columbia,http://www.skiresort.info/ski-resort/aberdeen-heli-prince-george/,0,,,,,,,,,0,0,0,-,,,,,,,,,,,,,,,,,,,,,,,,0,,53.8826639,-122.676198
24,adamants,North America,Canada,British Columbia,http://www.skiresort.info/ski-resort/adamants/,3100,,,,,,,,,0,0,0,-,,,,,,,,,,,,,,,,,,,,,,,,0,,51.6321169,-118.1691384
25,adanac-ski-hill,North America,Canada,Ontario,http://www.skiresort.info/ski-resort/adanac-ski-hill/,340,1.3,0.6,0.1,,,,,,0,0,0,-,,,,,,,,,,,,,,,,,,,,,0,,,,,46.5105613,-80.9604325
34,afton-alps,North America,USA,Minnesota,http://www.skiresort.info/ski-resort/afton-alps/,387,3,3,2,,,0,,,58,0,53,US Dollar,1.9,2.3,3,,,,,,,,,,,,,,,,,0,0,,,,,44.8576608,-92.7878062
65,al-quaal,North America,USA,Michigan,http://www.skiresort.info/ski-resort/al-quaal/,451,0.2,0.2,0,,,,,,0,0,0,-,,,,,,,,,,,,,,,,,,,,,,,,,,46.5128663,-87.6603544
73,aldis-hill-park-st-albans,North America,USA,Vermont,http://www.skiresort.info/ski-resort/aldis-hill-park-st-albans/,150,0.2,0.2,0,,,,,,0,0,0,-,,,,,,,,,,,,,,,,,,,,,,,,,,44.8194721,-73.0697422
80,alice-hill-park-pembroke,North America,Canada,Ontario,http://www.skiresort.info/ski-resort/alice-hill-park-pembroke/,210,1,0.5,0,,,,0,,22,0,18,Canadian Dollar,1.3,1.3,1.5,,,,,,,,,,,,,,,,,,,,,,,43.2285102,-79.8660836
99,alpenglow-at-arctic-valley,North America,USA,Alaska,http://www.skiresort.info/ski-resort/alpenglow-at-arctic-valley/,1188,5,10,10,,,,,,35,30,20,US Dollar,,,,,,,,,,,,,,,,,,,,,,,,,,61.2467223,-149.53491
101,alpental,North America,USA,Washington State,http://www.skiresort.info/ski-resort/alpental/,1670,0.5,2.3,6.8,,,0,,,79,55,15,US Dollar,2.1,2.3,3.5,,,,,,,,,,,,,,,,,,0,,,,,47.444154,-121.4259301
105,alpine-meadows,North America,USA,Western United States,http://www.skiresort.info/ski-resort/alpine-meadows/,2632,25,40,35,,,0,0,0,159,134,98,US Dollar,3,5,4,5,5,3,4,4,3,4,3,2,1,4,4,5,5,1,,,,,,,,39.1785177,-120.2276948
106,alpine-mountain-ski-snow-tubing-center,North America,USA,Pennsylvania,http://www.skiresort.info/ski-resort/alpine-mountain-ski-snow-tubing-center/,351,2,4,2,,,0,,,55,0,45,US Dollar,1.9,2.3,3,,,,,,,,,,,,,,,,,,,,,,,41.039612,-75.085262
107,alpine-ski-club-collingwood,North America,Canada,Ontario,http://www.skiresort.info/ski-resort/alpine-ski-club-collingwood/,460,10,6,4,,,0,,0,80,0,55,Canadian Dollar,2.4,2.7,3.4,,,,,,,,,,,,,,,,,,,,,,,44.5233681,-80.347586
109,alpine-valley-cleveland,North America,USA,Ohio,http://www.skiresort.info/ski-resort/alpine-valley-cleveland/,457,0.4,0.6,0.5,,,0,0,,43,0,38,US Dollar,1.3,1.7,2.9,,,,,,,,,,,,,,,,,,,,,,,41.480547,-81.622342
110,alpine-valley-resort-elkhorn,North America,USA,Wisconsin,http://www.skiresort.info/ski-resort/alpine-valley-resort-elkhorn/,415,1.5,1.5,1,,,0,,0,48,0,43,US Dollar,1.5,1.9,3.5,,,,,,,,,,,,,,,,,,,,,,,42.7358161,-88.4280693
111,alpine-valley-white-lake,North America,USA,Michigan,http://www.skiresort.info/ski-resort/alpine-valley-white-lake/,368,3,1,1,,,,,0,45,0,35,US Dollar,,,,,,,,,,,,,,,,,,,,,,,,,,42.6529705,-83.5230445
119,alta,North America,USA,Utah,http://www.skiresort.info/ski-resort/alta/,3215,29,46.4,40.6,,,0,,,104,0,54,US Dollar,4.3,4.7,3.7,,,,,,,,,,,,,,,,,0,0,,,,0,40.5888394,-111.6379793
121,alta-sierra-shirley-meadows,North America,USA,California,http://www.skiresort.info/ski-resort/alta-sierra-shirley-meadows/,2160,1.3,0.2,0,,,,,,35,0,25,US Dollar,,,,,,,,,,,,,,,,,,,,,,,,,,35.71083,-118.55556
136,alyeska-resort-girdwood,North America,USA,Alaska,http://www.skiresort.info/ski-resort/alyeska-resort-girdwood/,840,14,31,17,,,0,,,85,68,39,US Dollar,3.4,3.7,3.5,,,,,,,,,,,,,,,,0,,0,,,0,,60.9704373,-149.0985114
158,american-dream-meadowlands-east-rutherford,North America,USA,New Jersey,http://www.skiresort.info/ski-resort/american-dream-meadowlands-east-rutherford/,136,0.3,0,0,,,,,,0,0,0,-,1.1,1,1,,,,,,,,,,,,,,,,,,,,,,,40.8092899,-74.068687
165,andes-tower-hills,North America,USA,Minnesota,http://www.skiresort.info/ski-resort/andes-tower-hills/,494,2.2,1.6,0.2,,,,,,42,0,30,US Dollar,,,,,,,,,,,,,,,,,,,,,,,,,,45.850975,-95.6304971
168,angel-fire,North America,USA,New Mexico,http://www.skiresort.info/ski-resort/angel-fire/,3256,40,28,7,,,0,,0,73,63,53,US Dollar,3.7,3.9,3.9,,,,,,,,,,,,,,,,,,,,,,,36.3930879,-105.2850091
179,antelope-butte,North America,USA,Wyoming,http://www.skiresort.info/ski-resort/antelope-butte/,2865,4,10,6,,,,,,30,25,15,US Dollar,,,,,,,,,,,,,,,,,,,,,,,,,,44.6121551,-107.5146787
181,anthony-lakes-mountain-resort,North America,USA,Oregon,http://www.skiresort.info/ski-resort/anthony-lakes-mountain-resort/,2438,2,3.8,4.2,,,0,,,35,29,21,US Dollar,2,2.3,2.9,,,,,,,,,,,,,,,,,0,0,,,,0,44.9993663,-118.0542452
183,antoine-mountain,North America,Canada,Ontario,http://www.skiresort.info/ski-resort/antoine-mountain/,362,4,4,3,,,0,,,56,0,43,Canadian Dollar,2.1,2.5,2.9,,,,,,,,,,,,,,,,,0,,,,,,46.3683351,-78.7344751
189,apache,North America,USA,New Mexico,http://www.skiresort.info/ski-resort/apache/,3475,12,18,25,,0,0,,,56,49,40,US Dollar,3.3,3.6,3.4,,,,,,,,,,,,,,,,,0,,,,,,33.3253573,-105.9027681
190,apex-resort,North America,Canada,British Columbia,http://www.skiresort.info/ski-resort/apex-resort/,2180,8,33,26,,,0,0,,78,64,48,Canadian Dollar,3.5,3.8,3.6,,,,,,,,,,,,,,,,,,,,,,,49.390317,-119.904704
191,appalachian-ski-mountain,North America,USA,North Carolina,http://www.skiresort.info/ski-resort/appalachian-ski-mountain/,1219,2,2.5,0.5,,,,,,61,0,42,US Dollar,,,,,,,,,,,,,,,,,,,,,0,,,,,36.1744099,-81.6625573
193,apple-mountain,North America,USA,Michigan,http://www.skiresort.info/ski-resort/apple-mountain/,244,0.8,0.8,0.4,,,,,,35,0,0,US Dollar,,,,,,,,,,,,,,,,,,,,,,,,,,43.470944,-84.107008
199,arapahoe-basin,North America,USA,Colorado,http://www.skiresort.info/ski-resort/arapahoe-basin/,3790,40,25,40,,,0,,,100,85,52,US Dollar,3,5,3,5,4,4,4,4,4,4,3,2,1,3,3,5,5,1,,,0,,,,,39.642312,-105.871685
218,arizona-snowbowl,North America,USA,Arizona,http://www.skiresort.info/ski-resort/arizona-snowbowl/,3505,12,14,11,,,0,,,89,75,55,US Dollar,2.9,3.3,3.3,,,,,,,,,,,,,,,,,,0,,,,,35.330886,-111.7103
247,asessippi,North America,Canada,Manitoba,http://www.skiresort.info/ski-resort/asessippi/,552,4,3,3,,,0,,,50,42.5,38.25,Canadian Dollar,2,2.4,2.9,,,,,,,,,,,,,,,,,0,0,,,,,50.951127,-101.339521
252,aspen-highlands,North America,USA,Colorado,http://www.skiresort.info/ski-resort/aspen-highlands/,3559,24.3,40.5,70.2,,,0,,,169,0,112,US Dollar,4,5,4,5,4,2,4,4,4,5,4,3,4,2,3,5,2,3,,,,,,,0,39.1760986,-106.8292058
253,aspen-mountain,North America,USA,Colorado,http://www.skiresort.info/ski-resort/aspen-mountain/,3418,0,49,54,,0,0,,,169,0,112,US Dollar,3,4,4,4,5,2,4,4,4,5,3,4,4,1,1,5,1,3,,,,,,,,39.1760986,-106.8292058
260,attitash-mountain-resort,North America,USA,New Hampshire,http://www.skiresort.info/ski-resort/attitash-mountain-resort/,716,7.4,17.4,12.2,,,0,,,85,0,64,US Dollar,2.9,3.2,3.3,,,,,,,,,,,,,,,,,,0,,,,,44.082771,-71.229443
270,ausblick-sussex,North America,USA,Wisconsin,http://www.skiresort.info/ski-resort/ausblick-sussex/,350,0.8,0.6,0,,,0,,,30,0,0,US Dollar,1.3,1.3,2.5,,,,,,,,,,,,,,,,,0,,,,,,43.1346697,-88.2645831
282,axis-freestyle-academy-vaughan,North America,Canada,Ontario,http://www.skiresort.info/ski-resort/axis-freestyle-academy-vaughan/,223,0.1,0,0,,,,,,59,0,0,Canadian Dollar,,,,,,,,,,,,,,,,,,,,,,,,,,43.8190182,-79.5362953
300,badger-mountain,North America,USA,Washington State,http://www.skiresort.info/ski-resort/badger-mountain/,1158,2,0.5,0,,,,,,10,10,10,US Dollar,,,,,,,,,,,,,,,,,,,,,,,,,,46.2334679,-119.3183521
301,badger-pass,North America,USA,California,http://www.skiresort.info/ski-resort/badger-pass/,2440,3.5,5,1.5,,,0,,,47,42,29.5,US Dollar,2,2.3,2.9,,,,,,,,,,,,,,,,,0,,,,,,37.6657628,-119.6546087
307,baie-des-sables,North America,Canada,Quebec,http://www.skiresort.info/ski-resort/baie-des-sables/,460,0.3,1,0.2,,,,,,10.5,0,9,Canadian Dollar,,,,,,,,,,,,,,,,,,,,,,,,,,48.847513,-67.947512
317,bald-mountain,North America,USA,Idaho,http://www.skiresort.info/ski-resort/bald-mountain/,1463,3,4,2,,,,0,,20,0,17,US Dollar,2,2.3,1.4,,,,,,,,,,,,,,,,,0,,,,,,43.6549064,-114.4092186
318,bald-mountain-sun-valley,North America,USA,Idaho,http://www.skiresort.info/ski-resort/bald-mountain-sun-valley/,2788,35,40,17,,0,0,,,125,0,75,US Dollar,4,4.3,3.9,,,,,,,,,,,,,,,,,,0,,,,,43.6905069,-114.3461103
349,batawa-ski-hill,North America,Canada,Ontario,http://www.skiresort.info/ski-resort/batawa-ski-hill/,80,0.2,0.9,0.4,,,0,0,,37,0,32,Canadian Dollar,1.3,1.6,2,,,,,,,,,,,,,,,,,,,,,,,44.1671765,-77.5967494
357,bear-creek-mountain-resort,North America,USA,Pennsylvania,http://www.skiresort.info/ski-resort/bear-creek-mountain-resort/,335,3,4,3,,,0,,,67,0,58,US Dollar,2,2.4,3,,,,,,,,,,,,,,,,,,0,,,,,40.4753327,-75.6252952
358,bear-mountain-big-bear-lake,North America,USA,California,http://www.skiresort.info/ski-resort/bear-mountain-big-bear-lake/,2684,8,11.2,8,,,0,,,89,73,36,US Dollar,2.7,3.1,3.4,,,,,,,,,,,,,,,,,,0,,,,,34.2276705,-116.8608046
359,bear-paw-ski-bowl,North America,USA,Montana,http://www.skiresort.info/ski-resort/bear-paw-ski-bowl/,1609,3,6,1,,,,,,20,0,18,US Dollar,,,,,,,,,,,,,,,,,,,,,,,,,,48.1649918,-109.6701448
360,bear-valley,North America,USA,California,http://www.skiresort.info/ski-resort/bear-valley/,2590,17,27,23,,,0,,,79,68,32,US Dollar,3.5,3.9,3.4,,,,,,,,,,,,,,,,,,0,,,,,38.4646337,-120.0399088
361,bears-den-mountain-fort-ransom,North America,USA,North Dakota,http://www.skiresort.info/ski-resort/bears-den-mountain-fort-ransom/,430,2,2,0,,,,,,25,0,21,US Dollar,,,,,,,,,,,,,,,,,,,,,,,,,,46.5265206,-97.935833
364,beartooth-basin,North America,USA,Wyoming,http://www.skiresort.info/ski-resort/beartooth-basin/,3322,0,2,3,,,,0,,45,0,0,US Dollar,1.7,1.7,1.5,,,,,,,,,,,,,,,,,,,,,,,44.9751148,-109.4347501
365,beartown,North America,USA,New York,http://www.skiresort.info/ski-resort/beartown/,304,0.5,0.3,0,,,,0,,22,0,20,US Dollar,1.2,1.2,1.5,,,,,,,,,,,,,,,,,,,,,,,44.7580964,-73.5804158
366,beauce-vallee-jonction,North America,Canada,Quebec,http://www.skiresort.info/ski-resort/beauce-vallee-jonction/,212,0.5,1.8,0.8,,,,0,,17,13,11,Canadian Dollar,1.5,1.8,1.5,,,,,,,,,,,,,,,,,,0,,,,,46.3718514,-70.9291984
367,beaver-creek,North America,USA,Colorado,http://www.skiresort.info/ski-resort/beaver-creek/,3488,28.5,64.5,57,,0,0,,,189,0,130,US Dollar,4,5,4,5,5,4,5,4,3,5,4,4,5,5,5,5,5,3,,,0,0,,,,39.604225,-106.516515
368,beaver-mountain,North America,USA,Utah,http://www.skiresort.info/ski-resort/beaver-mountain/,2700,10,12,8,,,0,,,48,0,38,US Dollar,2.8,3.2,3,,,,,,,,,,,,,,,,,,0,,,,,41.9640972,-111.5579911
369,beaver-valley-ski-club,North America,Canada,Ontario,http://www.skiresort.info/ski-resort/beaver-valley-ski-club/,410,3,8,4,,,0,,,75,0,50,Canadian Dollar,2.2,2.5,3,,,,,,,,,,,,,,,,,,0,,,,,44.357747,-80.544822
373,beech-mountain,North America,USA,North Carolina,http://www.skiresort.info/ski-resort/beech-mountain/,1678,3,7,4,,,0,0,,65,0,45,US Dollar,2.2,2.5,3.3,,,,,,,,,,,,,,,,,,,,,,,36.2109584,-81.8890031
374,beef-trail,North America,USA,Montana,http://www.skiresort.info/ski-resort/beef-trail/,0,,,,,,,,,0,0,0,-,,,,,,,,,,,,,,,,,,,,,,,,,,45.9615774,-112.5771632
386,bella-coola,North America,Canada,British Columbia,http://www.skiresort.info/ski-resort/bella-coola/,0,,,,,,,,,0,0,0,-,,,,,,,,,,,,,,,,,,,,,,,,0,,52.3721277,-126.7539346
387,belle-neige,North America,Canada,Quebec,http://www.skiresort.info/ski-resort/belle-neige/,307,8,4,8,,,,,,42,34,28,Canadian Dollar,,,,,,,,,,,,,,,,,,,,,0,,,,,46.0016046,-74.2148539
388,belleayre-mountain,North America,USA,New York,http://www.skiresort.info/ski-resort/belleayre-mountain/,1045,5,11,4,,0,0,,,68,58,46,US Dollar,2.4,2.7,3.6,,,,,,,,,,,,,,,,,,0,,,,,42.1322453,-74.505312
396,ben-eoin,North America,Canada,Nova Scotia,http://www.skiresort.info/ski-resort/ben-eoin/,154,3,4,3,,,0,0,0,38,0,0,Canadian Dollar,2,2.4,2.3,,,,,,,,,,,,,,,,,0,,,,,,45.9740292,-60.4339797
412,berkshire-east,North America,USA,Massachusetts,http://www.skiresort.info/ski-resort/berkshire-east/,561,6,4,3,,,,,,62,52,42,US Dollar,,,,,,,,,,,,,,,,,,,,,0,,,,,42.622664,-72.878383
442,big-bam-taylor,North America,Canada,British Columbia,http://www.skiresort.info/ski-resort/big-bam-taylor/,469,0.3,0.2,0.1,,,,,,20,0,15,Canadian Dollar,1.2,1.5,1,,,,,,,,,,,,,,,,,0,,,,,,56.1312083,-120.7001889
443,big-bear-at-masthope-mountain,North America,USA,Pennsylvania,http://www.skiresort.info/ski-resort/big-bear-at-masthope-mountain/,450,3,2,2,,,0,,,59,0,45,US Dollar,1.9,2.3,3,,,,,,,,,,,,,,,,,,0,,,,,41.5232598,-75.0250626
444,big-boulder,North America,USA,Pennsylvania,http://www.skiresort.info/ski-resort/big-boulder/,663,3,1,0,,,,,,58,0,45,US Dollar,,,,,,,,,,,,,,,,,,,,,0,,,,,41.0488459,-75.5873438
445,big-creek-ski-area,North America,USA,Ohio,http://www.skiresort.info/ski-resort/big-creek-ski-area/,320,1,0,0,,,,,,0,0,0,-,,,,,,,,,,,,,,,,,,,,,,,,,,41.647257,-81.184051
446,big-powderhorn-mountain,North America,USA,Michigan,http://www.skiresort.info/ski-resort/big-powderhorn-mountain/,540,3.5,3.5,3,,,,,,65,54,44,US Dollar,,,,,,,,,,,,,,,,,,,,,,,,,,46.5097428,-90.0941598
447,big-sky-resort,North America,USA,Montana,http://www.skiresort.info/ski-resort/big-sky-resort/,3398,55,69,126,,,0,0,,135,115,86,US Dollar,4.9,5,3.6,,,,,,,,,,,,,,,,0,0,0,,,,,45.2857289,-111.4012076
448,big-squaw,North America,USA,Maine,http://www.skiresort.info/ski-resort/big-squaw/,933,3,3,2,,,,,,30,0,25,US Dollar,,,,,,,,,,,,,,,,,,,,,,,,,,45.4842129,-69.7111681
449,big-tupper-tupper-lake,North America,USA,New York,http://www.skiresort.info/ski-resort/big-tupper-tupper-lake/,1082,5,5,2,,,,,,0,0,0,-,,,,,,,,,,,,,,,,,,,,,,,,,,44.1693999,-74.4794083
450,big-white,North America,Canada,British Columbia,http://www.skiresort.info/ski-resort/big-white/,2285,18.9,56.7,29.4,,0,0,0,,105,89,62,Canadian Dollar,4,5,4,4,5,3,4,4,4,5,4,3,5,5,5,4,5,3,,,0,,,,,49.7216277,-118.9265789
454,bigrock-mountain,North America,USA,Maine,http://www.skiresort.info/ski-resort/bigrock-mountain/,498,2,14,4,,,0,,,38,27,17,US Dollar,2.4,2.7,3,,,,,,,,,,,,,,,,,,0,,,,,46.5224036,-67.8289461
468,bittersweet,North America,USA,Michigan,http://www.skiresort.info/ski-resort/bittersweet/,324,,,,,,,,0,44,0,36,US Dollar,,,,,,,,,,,,,,,,,,,,,,,,,,42.467159,-85.758719
477,black-mountain-jackson,North America,USA,New Hampshire,http://www.skiresort.info/ski-resort/black-mountain-jackson/,570,6,4,2,,,,,,55,42,38,US Dollar,,,,,,,,,,,,,,,,,,,,,,,,,,44.2252777,-71.1555555
478,black-mountain-rumford,North America,USA,Maine,http://www.skiresort.info/ski-resort/black-mountain-rumford/,650,2,3.5,2.5,,,0,0,,29,0,0,US Dollar,1.9,2.3,2.7,,,,,,,,,,,,,,,,,0,,,,,,44.5839515,-70.6370122
479,black-rapid,North America,USA,Alaska,http://www.skiresort.info/ski-resort/black-rapid/,0,,,,,,,,,0,0,0,-,,,,,,,,,,,,,,,,,,,,,,,,,,63.5294006,-145.8568827
480,blackhawk-ski-club-middleton,North America,USA,Wisconsin,http://www.skiresort.info/ski-resort/blackhawk-ski-club-middleton/,328,0.6,0.2,0,,,,,,0,0,0,-,1.2,1.2,1,,,,,,,,,,,,,,,,,0,,,,,,43.082221,-89.5684229
481,blackjack,North America,USA,Michigan,http://www.skiresort.info/ski-resort/blackjack/,510,2,4,4,,,,,,65,0,52,US Dollar,,,,,,,,,,,,,,,,,,,,,,,,,,46.4821953,-89.9896697
482,blacktail-mountain,North America,USA,Montana,http://www.skiresort.info/ski-resort/blacktail-mountain/,2066,3,11,3,,,,,,40,28,19,US Dollar,,,,,,,,,,,,,,,,,,,,,,,,,,48.0107829,-114.3640158
486,blandford,North America,USA,Massachusetts,http://www.skiresort.info/ski-resort/blandford/,440,2,2,1,,,,,,44,0,39,US Dollar,,,,,,,,,,,,,,,,,,,,,,,,,,42.1806463,-72.9273224
495,blomidon-cat-skiing,North America,Canada,Newfoundland and Labrador,http://www.skiresort.info/ski-resort/blomidon-cat-skiing/,0,,,,,,,,,0,0,0,-,,,,,,,,,,,,,,,,,,,,,,,,,0,45.218645,-64.3716631
496,blue-hills,North America,USA,Massachusetts,http://www.skiresort.info/ski-resort/blue-hills/,180,1.5,1,0.5,,,,,,45,0,0,US Dollar,,,,,,,,,,,,,,,,,,,,,0,,,,,42.215952,-71.0676048
497,blue-knob,North America,USA,Pennsylvania,http://www.skiresort.info/ski-resort/blue-knob/,960,5,8,3,,,,,,62,0,50,US Dollar,,,,,,,,,,,,,,,,,,,,,,,,,,40.2884091,-78.5616833
498,blue-mountain,North America,USA,Pennsylvania,http://www.skiresort.info/ski-resort/blue-mountain/,470,10,6,2,,,,,,85,0,70,US Dollar,,,,,,,,,,,,,,,,,,,,,0,,,,,40.8109009,-75.5205571
499,blue-mountain-resort-collingwood,North America,Canada,Ontario,http://www.skiresort.info/ski-resort/blue-mountain-resort-collingwood/,450,6.1,14.3,8.9,,,0,,,70,53,10,Canadian Dollar,2.6,2.9,4,,,,,,,,,,,,,,,,,,0,,,,,44.503346,-80.310917
501,bluewood,North America,USA,Washington State,http://www.skiresort.info/ski-resort/bluewood/,1730,3,5,3,,,,,,39,0,32,US Dollar,,,,,,,,,,,,,,,,,,,,,,,,,,46.0824866,-117.8511673
513,bogus-basin,North America,USA,Idaho,http://www.skiresort.info/ski-resort/bogus-basin/,2311,11,22,17,,,0,,,59,49,25,US Dollar,3.2,3.5,3.7,,,,,,,,,,,,,,,,,,0,,,,,43.7640569,-116.1026168
518,boler-mountain-london,North America,Canada,Ontario,http://www.skiresort.info/ski-resort/boler-mountain-london/,328,3,2.2,0.8,,,0,,,39,0,36,Canadian Dollar,1.7,2,3,,,,,,,,,,,,,,,,,,0,,,,,42.9443965,-81.3393669
520,bolton-valley,North America,USA,Vermont,http://www.skiresort.info/ski-resort/bolton-valley/,960,15,10,5,,,0,,,74,0,64,US Dollar,3,4,2,4,4,4,4,3,4,4,2,2,3,3,4,3,5,3,,0,,,,,,44.42099,-72.850323
523,boogie-mountain-espanola,North America,Canada,Ontario,http://www.skiresort.info/ski-resort/boogie-mountain-espanola/,0,,,,,,,,,31,0,25,Canadian Dollar,,,,,,,,,,,,,,,,,,,,,,,,,,46.2402849,-81.7745442
525,boreal,North America,USA,Western United States,http://www.skiresort.info/ski-resort/boreal/,2357,6,11,3,,,0,,,64,44,34,US Dollar,2.4,2.7,3.3,,,,,,,,,,,,,,,,,,0,,,,,39.3364539,-120.3498347
538,bosques-de-monterreal-san-antonio-de-las-alazanas,North America,Mexico,,http://www.skiresort.info/ski-resort/bosques-de-monterreal-san-antonio-de-las-alazanas/,2722,0.2,0.1,0,,,,0,,0,0,0,-,1.1,1.1,1.5,,,,,,,,,,,,,,,,,,0,,,,,25.2322012,-100.4339215
539,boston-mills,North America,USA,Ohio,http://www.skiresort.info/ski-resort/boston-mills/,270,0.5,0.5,0.5,,,,,,43,0,38,US Dollar,,,,,,,,,,,,,,,,,,,,,,,,,,41.2409395,-81.5486728
541,bottineau-winter-park,North America,USA,North Dakota,http://www.skiresort.info/ski-resort/bottineau-winter-park/,740,0.8,0.3,0.2,,,,,,35,30,20,US Dollar,,,,,,,,,,,,,,,,,,,,,,,,,,48.9511857,-100.4768044
545,bousquet,North America,USA,Massachusetts,http://www.skiresort.info/ski-resort/bousquet/,566,3,2,3,,,,,,47,0,0,US Dollar,,,,,,,,,,,,,,,,,,,,,0,,,,,42.4192223,-73.2770782
547,boyce-park,North America,USA,Pennsylvania,http://www.skiresort.info/ski-resort/boyce-park/,380,1,0,0,,,,,,22,16,8,US Dollar,,,,,,,,,,,,,,,,,,,,,0,,,,,40.4669803,-79.7443055
548,boyne-highlands,North America,USA,Michigan,http://www.skiresort.info/ski-resort/boyne-highlands/,408,4,3,3,,,0,,,89,79,69,US Dollar,2,2.4,3.2,,,,,,,,,,,,,,,,,,0,,,,,45.4708444,-84.9354489
549,boyne-mountain,North America,USA,Michigan,http://www.skiresort.info/ski-resort/boyne-mountain/,372,4.5,6,3.5,,,0,,,89,79,69,US Dollar,2.2,2.6,3.1,,,,,,,,,,,,,,,,,,0,,,,,45.168065,-84.9161574
554,bradford,North America,USA,Massachusetts,http://www.skiresort.info/ski-resort/bradford/,80,1.5,1.5,1,,,,,,52,0,0,US Dollar,,,,,,,,,,,,,,,,,,,,,0,,,,,42.7695348,-71.0758905
567,brandywine-ski-resort,North America,USA,Ohio,http://www.skiresort.info/ski-resort/brandywine/,270,1,0.7,0.3,,,,,,43,0,38,US Dollar,,,,,,,,,,,,,,,,,,,,,,,,,,41.2640987,-81.5632108
569,brantling-ski-slopes,North America,USA,New York,http://www.skiresort.info/ski-resort/brantling-ski-slopes/,210,0.7,0.3,0,,,,,,32,0,29,US Dollar,,,,,,,,,,,,,,,,,,,,,,,,,,43.1500556,-77.0657092
574,breckenridge,North America,USA,Colorado,http://www.skiresort.info/ski-resort/breckenridge/,3914,28,60,65,,0,0,0,0,164,0,107,US Dollar,4,5,4,5,4,3,5,4,3,5,4,4,5,5,5,5,5,3,,,0,,,,,39.4816537,-106.0383518
586,bretton-woods,North America,USA,New Hampshire,http://www.skiresort.info/ski-resort/bretton-woods/,945,25,16,15,,,0,0,,89,68,53,US Dollar,3.2,3.6,3.8,,,,,,,,,,,,,,,,,,0,,,,,44.2581201,-71.4411894
589,brian-head,North America,USA,Utah,http://www.skiresort.info/ski-resort/brian-head/,3328,22,24,25,,,0,,0,69,0,50,US Dollar,3.5,3.9,3.3,,,,,,,,,,,,,,,,,,,,,,0,37.6927551,-112.8507766
590,bridger-bowl-bozeman,North America,USA,Montana,http://www.skiresort.info/ski-resort/bridger-bowl-bozeman/,2682,20,26,25,,,0,,,60,0,22,US Dollar,3.6,4,3,,,,,,,,,,,,,,,,,0,,,,,,45.8173562,-110.8966184
594,brighton,North America,USA,Utah,http://www.skiresort.info/ski-resort/brighton/,3200,10,18,38,,,0,,,79,0,49,US Dollar,3.5,3.8,4.1,,,,,,,,,,,,,,,,,,0,,,,,40.60384,-111.5821429
595,brimacombe-oshawa-ski-club,North America,Canada,Ontario,http://www.skiresort.info/ski-resort/brimacombe-oshawa-ski-club/,300,3,2,1,,,0,0,,50.99,0,40.99,Canadian Dollar,1.7,2,2.5,,,,,,,,,,,,,,,,,0,0,,,,,44.022346,-78.574953
596,bristol-mountain,North America,USA,New York,http://www.skiresort.info/ski-resort/bristol-mountain/,670,6,10,4,,,0,,,72,0,57,US Dollar,2.4,2.7,3.6,,,,,,,,,,,,,,,,,,0,,,,,42.7452867,-77.4043108
602,bromley-mountain,North America,USA,Vermont,http://www.skiresort.info/ski-resort/bromley-mountain/,1001,15,18,12,,,,,,79,69,56,US Dollar,,,,,,,,,,,,,,,,,,,,,,,,,,43.2278531,-72.9387126
604,bromont,North America,Canada,Quebec,http://www.skiresort.info/ski-resort/bromont/,565,10,15,20,,,0,,,68,52,37,Canadian Dollar,3,3.3,3.3,,,,,,,,,,,,,,,,,,0,,,,,45.2852479,-72.6872419
606,brookvale-ski-park,North America,Canada,Prince Edward Island,http://www.skiresort.info/ski-resort/brookvale-ski-park/,96,2.1,1,1.5,,,0,0,,0,0,0,-,1.5,1.8,2.7,,,,,,,,,,,,,,,,,0,,,,,,46.280389,-63.4096044
609,bruce-mound,North America,USA,Wisconsin,http://www.skiresort.info/ski-resort/bruce-mound/,400,1,0.5,0.5,,,,,,31,28,13,US Dollar,,,,,,,,,,,,,,,,,,,,,,,,,,44.4405905,-90.7815926
614,brundage-mountain,North America,USA,Idaho,http://www.skiresort.info/ski-resort/brundage-mountain/,2328,6,15,9,,,0,,,64,37,23,US Dollar,2.8,3.1,3.4,,,,,,,,,,,,,,,,,,,,,,0,45.0054,-116.1544121
619,bryce-resort,North America,USA,Virginia,http://www.skiresort.info/ski-resort/bryce-resort/,533,2,2.8,0.2,,,0,,,65,0,58,US Dollar,1.7,1.9,3,,,,,,,,,,,,,,,,,,0,,,,,38.8174647,-78.7656946
632,buck-hill-ski-area,North America,USA,Minnesota,http://www.skiresort.info/ski-resort/buck-hill-ski-area/,371,1.2,0.8,0.2,,,0,,,44,0,32,US Dollar,1.3,1.5,2.7,,,,,,,,,,,,,,,,,0,0,,,,,44.7231319,-93.287252
633,buckhorn-ski-and-snowboard-club,North America,USA,California,http://www.skiresort.info/ski-resort/buckhorn-ski-and-snowboard-club/,2253,0.2,0.6,0.4,,,,,,0,0,0,-,,,,,,,,,,,,,,,,,,,,,,,,,,34.341899,-117.919709
641,buena-vista,North America,USA,Minnesota,http://www.skiresort.info/ski-resort/buena-vista/,470,0.4,0.8,0.5,,,,,,40,0,30,US Dollar,,,,,,,,,,,,,,,,,,,,,,,,,,47.6580367,-94.8788904
647,buffalo-ski-club,North America,USA,New York,http://www.skiresort.info/ski-resort/buffalo-ski-club/,512,5,4,2,,,,,,55,0,44,US Dollar,,,,,,,,,,,,,,,,,,,,,,,,,,42.680979,-78.69204
648,bugaboos,North America,Canada,British Columbia,http://www.skiresort.info/ski-resort/bugaboos/,3050,,,,,,,,,0,0,0,-,,,,,,,,,,,,,,,,,,,,,,,,0,,50.8175258,-116.8522904
663,burke-mountain,North America,USA,Vermont,http://www.skiresort.info/ski-resort/burke-mountain/,975,2,4,4,,,0,0,,64,55,47,US Dollar,2.1,2.4,3.7,,,,,,,,,,,,,,,,,,0,,,,,44.5711658,-71.8923159
670,buttermilk-mountain,North America,USA,Colorado,http://www.skiresort.info/ski-resort/buttermilk-mountain/,3018,11.9,13.3,8.8,,,0,,,169,0,112,US Dollar,3,4,4,4,5,3,4,4,4,5,3,2,2,4,5,2,5,3,,0,0,,,,,39.2057944,-106.8604932
671,butternut-basin,North America,USA,Massachusetts,http://www.skiresort.info/ski-resort/butternut-basin/,540,4.4,13.2,4.4,,,,,0,65,0,55,US Dollar,,,,,,,,,,,,,,,,,,,,,,,,,,42.1703675,-73.314278
675,caberfae-peaks,North America,USA,Michigan,http://www.skiresort.info/ski-resort/caberfae-peaks/,465,4,5,2,,,0,,,47,42,37,US Dollar,2.1,2.4,3,,,,,,,,,,,,,,,,,0,,,,,,44.2447088,-85.7205725
677,calabogie-peaks,North America,Canada,Ontario,http://www.skiresort.info/ski-resort/calabogie-peaks/,370,4,4,0,,,0,,,42,37,28,Canadian Dollar,1.9,1.9,3,,,,,,,,,,,,,,,,,,0,,,,,45.27475,-76.78143
679,caledon-ski-club,North America,Canada,Ontario,http://www.skiresort.info/ski-resort/caledon-ski-club/,414,2,2.5,1.5,,,0,,,67,57,50,Canadian Dollar,1.7,2.1,3,,,,,,,,,,,,,,,,,,0,,,,,43.8017614,-80.0124143
683,camden-snow-bowl,North America,USA,Maine,http://www.skiresort.info/ski-resort/camden-snow-bowl/,320,1.2,3.6,1.2,,,,,,39,0,34,US Dollar,,,,,,,,,,,,,,,,,,,,,,,,,,44.2172685,-69.1346534
684,camelback,North America,USA,Pennsylvania,http://www.skiresort.info/ski-resort/camelback/,623,20,11,3,,,0,,0,67,0,49,US Dollar,2.7,2.9,3.3,,,,,,,,,,,,,,,,,,,,,,,41.0422088,-75.3520169
686,camp-10,North America,USA,Wisconsin,http://www.skiresort.info/ski-resort/camp-10/,530,0.3,0.7,0.5,,,,,,34,0,25,US Dollar,,,,,,,,,,,,,,,,,,,,,,,,,,45.548993,-89.4962634
687,camp-fortune,North America,Canada,Quebec,http://www.skiresort.info/ski-resort/camp-fortune/,276,5,12,6,,,0,0,,40,30,20,Canadian Dollar,2.5,2.8,2.9,,,,,,,,,,,,,,,,,,0,,,,,45.5107837,-75.8517533
688,campgaw,North America,USA,New Jersey,http://www.skiresort.info/ski-resort/campgaw/,290,1,0,0,,,,,,45,0,0,US Dollar,,,,,,,,,,,,,,,,,,,,,0,,,,,41.023986,-74.2009788
698,campton-mountain,North America,USA,New Hampshire,http://www.skiresort.info/ski-resort/campton-mountain/,435,0.6,0.5,0.2,,,0,,,15,0,0,US Dollar,1.3,1.6,2.8,,,,,,,,,,,,,,,,,0,,,,,,43.8663073,-71.6095102
701,canaan-valley,North America,USA,West Virginia,http://www.skiresort.info/ski-resort/canaan-valley/,1304,3,4,3,,,,,0,68,0,47,US Dollar,,,,,,,,,,,,,,,,,,,,,,,,,,39.13483,-79.4044928
702,canada-olympic-park-calgary,North America,Canada,Alberta,http://www.skiresort.info/ski-resort/canada-olympic-park-calgary/,1246,3.5,0.5,0,,,0,,,45.99,28.99,18.99,Canadian Dollar,1,2,4,4,4,5,3,4,3,4,2,2,1,4,5,1,5,2,,,0,,,,,51.0846405,-114.2216983
703,canadian-mountain-holidays-valemount,North America,Canada,British Columbia,http://www.skiresort.info/ski-resort/canadian-mountain-holidays-valemount/,3150,,,,,,,,,0,0,0,-,,,,,,,,,,,,,,,,,,,,,,,,0,,52.7202822,-119.4718122
707,cannon-mountain,North America,USA,New Hampshire,http://www.skiresort.info/ski-resort/cannon-mountain/,1243,15,25,10,,,0,0,,75,62,53,US Dollar,3.2,3.5,3.2,,,,,,,,,,,,,,,,0,0,0,,,,,44.1564536,-71.6984172
708,cannonsburg-ski-area,North America,USA,Michigan,http://www.skiresort.info/ski-resort/cannonsburg-ski-area/,280,0.5,1,0.5,,,,,,37,0,27,US Dollar,,,,,,,,,,,,,,,,,,,,,0,,,,,43.0541098,-85.5012494
709,canyon-ski-area,North America,Canada,Alberta,http://www.skiresort.info/ski-resort/canyon-ski-area/,899,5,7,1,,,0,0,,42,0,0,Canadian Dollar,2.2,2.4,2.7,,,,,,,,,,,,,,,,,0,,,,,,52.3040051,-113.6826235
710,cap-chat,North America,Canada,Quebec,http://www.skiresort.info/ski-resort/cap-chat/,223,2,0.5,1.5,,,,,,0,0,0,-,,,,,,,,,,,,,,,,,,,,,,,,,,49.0940662,-66.6857394
711,cape-smokey,North America,Canada,Nova Scotia,http://www.skiresort.info/ski-resort/cape-smokey/,285,,,,,,0,,,0,0,0,-,,,,,,,,,,,,,,,,,,,,,,,,,,46.6166667,-60.3499999
719,cariboo,North America,Canada,British Columbia,http://www.skiresort.info/ski-resort/cariboo/,3000,,,,,,,,,0,0,0,-,,,,,,,,,,,,,,,,,,,,,,,,0,,52.4031805,-123.4553619
720,caribou-mountain,North America,Canada,Ontario,http://www.skiresort.info/ski-resort/caribou-mountain/,0,,,,,,,,,0,0,0,-,,,,,,,,,,,,,,,,,,,,,,,,,,47.058333,-79.779167
723,carson-ski-resort,North America,USA,California,http://www.skiresort.info/ski-resort/carson-ski-resort/,0,,,,,,,,,0,0,0,-,,,,,,,,,,,,,,,,,,,,,,,,,,33.7058559,-117.8527391
726,cascade-mountain,North America,USA,Wisconsin,http://www.skiresort.info/ski-resort/cascade-mountain/,378,5,5,4,,,,,,0,0,0,-,,,,,,,,,,,,,,,,,,,,,0,,,,,43.4930382,-89.518732
727,cascade-powder-guides,North America,USA,Washington State,http://www.skiresort.info/ski-resort/cascade-powder-guides/,1705,,,,,,,,,465,0,465,US Dollar,,,,,,,,,,,,,,,,,,,,,,,,,0,47.7428844,-121.161292
729,castle-mountain,North America,Canada,Alberta,http://www.skiresort.info/ski-resort/castle-mountain/,2273,9,20,65,,,0,0,,84,74,34,Canadian Dollar,3,5,3,4,4,3,4,4,4,5,2,3,3,3,4,5,4,2,,0,0,,,,0,51.3273486,-115.9657409
730,caswell,North America,Canada,Ontario,http://www.skiresort.info/ski-resort/caswell/,0,,,,,,,,,0,0,0,-,,,,,,,,,,,,,,,,,,,,,,,,,,45.7703689,-79.3921063
731,cataldo-peak-adventures,North America,USA,Idaho,http://www.skiresort.info/ski-resort/cataldo-peak-adventures/,0,,,,,,,,,325,0,0,US Dollar,,,,,,,,,,,,,,,,,,,,,,,,,0,47.554272,-116.328796
732,cataloochee,North America,USA,North Carolina,http://www.skiresort.info/ski-resort/cataloochee/,1583,1.5,3,1.5,,,0,,,65,0,47,US Dollar,1.7,2.1,3,,,,,,,,,,,,,,,,,,0,,,,,35.6401005,-83.0801441
733,catamount,North America,USA,Massachusetts,http://www.skiresort.info/ski-resort/catamount/,580,8,4,3,,,0,,,66,0,56,US Dollar,2.2,2.5,3,,,,,,,,,,,,,,,,,,0,,,,,42.1690998,-73.4769258
737,cazenovia,North America,USA,New York,http://www.skiresort.info/ski-resort/cazenovia/,440,0.6,0.7,1,,,,0,,0,0,0,-,1.3,1.7,1.4,,,,,,,,,,,,,,,,,0,,,,,,42.8939211,-75.8766333
738,cedar-highlands-ski-club,North America,Canada,Ontario,http://www.skiresort.info/ski-resort/cedar-highlands-ski-club/,0,,,,,,0,,,0,0,0,-,,,,,,,,,,,,,,,,,,,,,,,,,,51.253775,-85.323214
744,centennial-park-ski-hill,North America,Canada,Ontario,http://www.skiresort.info/ski-resort/centennial-park-ski-hill/,170,0.1,0.2,0,,,,,,0,0,0,-,,,,,,,,,,,,,,,,,,,,,0,,,,,43.6568496,-79.5886302
747,centre-de-plein-air-levis,North America,Canada,Quebec,http://www.skiresort.info/ski-resort/centre-de-plein-air-levis/,100,0.3,0.1,0.1,,,,0,,15,0,10,Canadian Dollar,1.1,1.4,1.5,,,,,,,,,,,,,,,,,,,,,,,46.8215242,-71.1598398
774,challenge-mountain-walloon-lake,North America,USA,Michigan,http://www.skiresort.info/ski-resort/challenge-mountain-walloon-lake/,325,0.9,0.3,0,,,,,,0,0,0,-,,,,,,,,,,,,,,,,,,,,,,,,,,45.2371442,-84.8800333
799,chatter-creek-mountain-lodge,North America,Canada,British Columbia,http://www.skiresort.info/ski-resort/chatter-creek-mountain-lodge/,0,,,,,,,,,0,0,0,-,,,,,,,,,,,,,,,,,,,,,,,,,0,51.496455,-117.1739799
810,cherry-peak,North America,USA,Utah,http://www.skiresort.info/ski-resort/cherry-peak/,2635,5,10,5,,,0,,0,42,0,32,US Dollar,2.4,2.8,3,,,,,,,,,,,,,,,,,,,,,,,41.9232626,-111.695497
811,chester-bowl-park,North America,USA,Minnesota,http://www.skiresort.info/ski-resort/chester-bowl-park/,380,0.6,0,0,,,0,,,10,0,0,US Dollar,1.2,1,3,,,,,,,,,,,,,,,,,,,,,,,46.8135101,-92.0907824
812,chestnut-mountain,North America,USA,Illinois,http://www.skiresort.info/ski-resort/chestnut-mountain/,335,2,3,1,,,,,,52,0,40,US Dollar,,,,,,,,,,,,,,,,,,,,,,,,,,42.319017,-90.393793
814,chicopee,North America,Canada,Ontario,http://www.skiresort.info/ski-resort/chicopee/,370,1,2,1.3,,,0,,,35,0,8,Canadian Dollar,1.5,1.8,3,,,,,,,,,,,,,,,,,,0,,,,,43.4359292,-80.41829
818,china-peak,North America,USA,California,http://www.skiresort.info/ski-resort/china-peak/,2654,20,17,13,,,,,,79,54,34,US Dollar,,,,,,,,,,,,,,,,,,,,,0,,,,,38.8629553,-122.1910851
833,christie-mountain,North America,USA,Wisconsin,http://www.skiresort.info/ski-resort/christie-mountain/,510,2.8,1.5,0.7,,,,,,37,0,32,US Dollar,,,,,,,,,,,,,,,,,,,,,,,,,,45.5090925,-91.3808238
835,christmas-mountain,North America,USA,Wisconsin,http://www.skiresort.info/ski-resort/christmas-mountain/,370,1.3,0.5,0.2,,,0,,,45,0,31,US Dollar,1.3,1.6,2.8,,,,,,,,,,,,,,,,,0,,,,,,43.609581,-89.861353
856,clear-fork,North America,USA,Ohio,http://www.skiresort.info/ski-resort/clear-fork/,420,,,,,,,,,0,0,0,-,,,,,,,,,,,,,,,,,,,,,0,,,,,40.7044962,-82.6280853
857,clearwater,North America,Canada,British Columbia,http://www.skiresort.info/ski-resort/clearwater/,1250,4,3,1,,,,0,,20,0,0,Canadian Dollar,1.9,2.2,1.3,,,,,,,,,,,,,,,,,0,,,,,,51.6510712,-120.0381726
858,cloudcroft,North America,USA,New Mexico,http://www.skiresort.info/ski-resort/cloudcroft/,2773,4,2,4,,,,,,45,0,35,US Dollar,,,,,,,,,,,,,,,,,,,,,,,,,,32.9573133,-105.7424855
859,cloudmont-ski-resort,North America,USA,Alabama,http://www.skiresort.info/ski-resort/cloudmont-ski-resort/,548,0.6,0,0,,,,,,30,0,25,US Dollar,,,,,,,,,,,,,,,,,,,,,,,,,,34.535179,-85.6031057
860,cobble-hills,North America,Canada,Ontario,http://www.skiresort.info/ski-resort/cobble-hills/,0,,,,,,0,0,,0,0,0,-,,,,,,,,,,,,,,,,,,,,0,0,,,,,43.11992,-81.09314
861,cochran-ski-area,North America,USA,Vermont,http://www.skiresort.info/ski-resort/cochran-ski-area/,280,0.6,0.5,0.1,,,,,,25,0,20,US Dollar,,,,,,,,,,,,,,,,,,,,,,,,,,44.3952427,-72.9815631
862,cockaigne-ski-area,North America,USA,New York,http://www.skiresort.info/ski-resort/cockaigne-ski-area/,619,,,,,,,,,38,0,31,US Dollar,,,,,,,,,,,,,,,,,,,,,,,,,,42.265312,-79.1620806
863,coffee-mill-ski-area,North America,USA,Minnesota,http://www.skiresort.info/ski-resort/coffee-mill-ski-area/,360,1,0.6,0.4,,,,,,32,0,26,US Dollar,,,,,,,,,,,,,,,,,,,,,,,,,,44.3636613,-92.0434902
884,cooper,North America,USA,Colorado,http://www.skiresort.info/ski-resort/cooper/,3566,8,10,8,,,0,0,,52,0,32,US Dollar,2.6,3,2.5,,,,,,,,,,,,,,,,,0,,,,,0,40.3605356,-103.5291113
885,cooper-spur,North America,USA,Oregon,http://www.skiresort.info/ski-resort/cooper-spur/,1325,4,4,2,,,0,,,32,0,28,US Dollar,2,2.3,3,,,,,,,,,,,,,,,,,,,,,,,45.4116278,-121.605828
887,copper-mountain,North America,USA,Colorado,http://www.skiresort.info/ski-resort/copper-mountain/,3767,30,40,56,,,0,0,0,150,0,85,US Dollar,4.4,4.7,3.7,,,,,,,,,,,,,,,,,,0,,,,0,39.502141,-106.1509952
888,coppervale,North America,USA,California,http://www.skiresort.info/ski-resort/coppervale/,1825,1,2,0,,,,0,,0,0,0,-,1.5,1.5,1.5,,,,,,,,,,,,,,,,,,,,,,,40.34667,-120.90389
898,cottonwood-butte,North America,USA,Idaho,http://www.skiresort.info/ski-resort/cottonwood-butte/,1707,,,,,,,,,20,0,0,US Dollar,,,,,,,,,,,,,,,,,,,,,,,,,,46.0755855,-116.4526032
900,crabbe-mountain,North America,Canada,New Brunswick,http://www.skiresort.info/ski-resort/crabbe-mountain/,370,4,2,14,,,0,0,,40,35,30,Canadian Dollar,2.4,2.7,2.3,,,,,,,,,,,,,,,,,0,,,,,,46.117097,-67.100672
903,craigleith-ski-club,North America,Canada,Ontario,http://www.skiresort.info/ski-resort/craigleith-ski-club/,430,,,,,,0,,,80,0,55,Canadian Dollar,,,,,,,,,,,,,,,,,,,,,0,,,,,44.5158484,-80.3324819
904,cranmore-mountain-resort,North America,USA,New Hampshire,http://www.skiresort.info/ski-resort/cranmore-mountain-resort/,609,16,19,8,,,0,,,72,59,45,US Dollar,2.9,3.2,3.4,,,,,,,,,,,,,,,,,0,0,,,,,44.0568523,-71.0995926
906,crescent-hills,North America,USA,Iowa,http://www.skiresort.info/ski-resort/crescent-hills/,457,0.8,0.8,0.4,,,,,,39,0,35,US Dollar,,,,,,,,,,,,,,,,,,,,,,,,,,41.3917746,-95.8571909
907,crescent-spur,North America,Canada,British Columbia,http://www.skiresort.info/ski-resort/crescent-spur/,0,,,,,,,,,0,0,0,-,,,,,,,,,,,,,,,,,,,,,,,,0,,53.583333,-120.683333
908,crested-butte,North America,USA,Colorado,http://www.skiresort.info/ski-resort/crested-butte/,3707,27,69,25,,,0,0,,115,104,63,US Dollar,4.3,4.6,3.7,,,,,,,,,,,,,,,,,,0,,,,,38.8697146,-106.9878231
917,crotched-mountain,North America,USA,New Hampshire,http://www.skiresort.info/ski-resort/crotched-mountain/,630,2.5,4,1.5,,,0,,,64,0,54,US Dollar,1.9,2.2,3.4,,,,,,,,,,,,,,,,,,0,,,,,42.9984151,-71.8736895
918,crystal-mountain-mi,North America,USA,Michigan,http://www.skiresort.info/ski-resort/crystal-mountain-mi/,359,1.2,2.3,1.4,,,0,,,72,0,62,US Dollar,1.5,1.8,3.3,,,,,,,,,,,,,,,,,,0,,,,,44.5194286,-85.9909959
919,crystal-mountain-wa,North America,USA,Washington State,http://www.skiresort.info/ski-resort/crystal-mountain-wa/,2137,8,27,15,,0,0,,,80,0,56,US Dollar,3.2,3.5,3.8,,,,,,,,,,,,,,,,,,0,,,,,46.9281666,-121.5045349
920,crystal-mountain-westbank,North America,Canada,British Columbia,http://www.skiresort.info/ski-resort/crystal-mountain-westbank/,1440,9,13,3,,,0,0,,48,39,30,Canadian Dollar,2.5,2.8,2.9,,,,,,,,,,,,,,,,,,,,,,,49.8804776,-119.7100719
926,cypress-mountain,North America,Canada,British Columbia,http://www.skiresort.info/ski-resort/cypress-mountain/,1440,6.6,22,22.4,,,0,,,75,54,34,Canadian Dollar,3,4,4,5,4,3,3,4,3,4,3,2,1,3,4,4,5,3,,,0,,,,,49.3388888,-122.8077777
944,dagmar-ski-resort,North America,Canada,Ontario,http://www.skiresort.info/ski-resort/dagmar-ski-resort/,199,1.7,1,0.3,,,0,,,54.87,0,48.67,Canadian Dollar,1.5,1.8,3,,,,,,,,,,,,,,,,,,0,,,,,44.01433,-79.049463
961,dartmouth-skiway,North America,USA,New Hampshire,http://www.skiresort.info/ski-resort/dartmouth-skiway/,592,4,8,4,,,,,,48,38,33,US Dollar,,,,,,,,,,,,,,,,,,,,,,,,,,43.787748,-72.099538
974,deer-mountain,North America,USA,South Dakota,http://www.skiresort.info/ski-resort/deer-mountain/,2028,10,7,5,,,0,0,,45,0,36,US Dollar,2.5,2.8,2.9,,,,,,,,,,,,,,,,,,,,,,,44.3087328,-103.8084943
975,deer-valley,North America,USA,Utah,http://www.skiresort.info/ski-resort/deer-valley/,2917,27,41,32,,0,0,,0,135,135,84,US Dollar,4,4.4,4,,,,,,,,,,,,,,,,,,,,,,,40.63738,-111.478306
983,denton-hill-state-park,North America,USA,Pennsylvania,http://www.skiresort.info/ski-resort/denton-hill-state-park/,750,4,2,2,,,,,,0,0,0,-,,,,,,,,,,,,,,,,,,,,,,,,,,41.7685761,-77.8338693
985,detroit-mountain,North America,USA,Minnesota,http://www.skiresort.info/ski-resort/detroit-mountain/,490,1,1,0,,,0,,,40,0,32,US Dollar,1.3,1.3,3,,,,,,,,,,,,,,,,,,,,,,,46.8162218,-95.7835195
986,devils-elbow,North America,Canada,Ontario,http://www.skiresort.info/ski-resort/devils-elbow/,362,0.4,1.9,3.3,,,0,,,52.22,44.25,40.6,Canadian Dollar,1.7,1.9,3,,,,,,,,,,,,,,,,,,,,,,,44.2208659,-78.5750082
987,devils-glen,North America,Canada,Ontario,http://www.skiresort.info/ski-resort/devils-glen/,510,1,1,1,,,0,,,75,0,47,Canadian Dollar,1.5,1.9,3,,,,,,,,,,,,,,,,,,0,,,,,44.3610299,-80.2071551
988,devils-head,North America,USA,Wisconsin,http://www.skiresort.info/ski-resort/devils-head/,303,3,3.5,3.5,,,,,,55,0,48,US Dollar,,,,,,,,,,,,,,,,,,,,,,,,,,43.4180036,-89.6268972
991,diamond-peak,North America,USA,Western United States,http://www.skiresort.info/ski-resort/diamond-peak/,2602,6,14,10,,,0,,,79,64,39,US Dollar,2.8,3.1,3.4,,,,,,,,,,,,,,,,,,0,,,,,43.5204007,-122.1497581
992,diamond-peaks,North America,USA,Utah,http://www.skiresort.info/ski-resort/diamond-peaks/,0,,,,,,,,,0,0,0,-,,,,,,,,,,,,,,,,,,,,,,,,0,,41.3031702,-111.8277463
1000,discovery-ski-area,North America,USA,Montana,http://www.skiresort.info/ski-resort/discovery-ski-area/,2484,12,12,21,,,0,,,46,0,24,US Dollar,3.1,3.5,3,,,,,,,,,,,,,,,,,,0,,,,,46.2496151,-113.238451
1008,do-mi-ski-dolbeau-mistassini,North America,Canada,Quebec,http://www.skiresort.info/ski-resort/do-mi-ski-dolbeau-mistassini/,158,2,2,0,,,0,,,15,0,12,Canadian Dollar,1.5,1.5,3,,,,,,,,,,,,,,,,,,,,,,,48.891903,-72.2380961
1013,dodge-ridge,North America,USA,California,http://www.skiresort.info/ski-resort/dodge-ridge/,2499,10,20,20,,,,,,72,59,24,US Dollar,,,,,,,,,,,,,,,,,,,,,0,,,,,38.1393627,-120.0224066
1025,dollar-mountain-sun-valley,North America,USA,Idaho,http://www.skiresort.info/ski-resort/dollar-mountain-sun-valley/,2023,7,2,0,,,0,,,120,0,58,US Dollar,2,2,3.7,,,,,,,,,,,,,,,,,,0,,,0,,43.6905069,-114.3461103
1036,donner-ski-area,North America,USA,Western United States,http://www.skiresort.info/ski-resort/donner-ski-area/,2240,6,8,0,,,0,,,59,47,25,US Dollar,2.2,2.2,3,,,,,,,,,,,,,,,,,,0,,,,,39.3176821,-120.3303293
1037,donner-ski-ranch,North America,USA,Western United States,http://www.skiresort.info/ski-resort/donner-ski-ranch/,2371,13,26,13,,,0,,,69,59,29,US Dollar,3.1,3.5,3,,,,,,,,,,,,,,,,,,,,,,,39.3176821,-120.3303293
1055,drumheller-valley-ski-hill,North America,Canada,Alberta,http://www.skiresort.info/ski-resort/drumheller-valley-ski-hill/,823,0.6,0,0,,,,,,0,0,0,-,,,,,,,,,,,,,,,,,,,,,,,,,,51.4651847,-112.7105342
1056,dry-hill,North America,USA,New York,http://www.skiresort.info/ski-resort/dry-hill/,293,0.7,1.2,0.5,,,,,,40,0,35,US Dollar,,,,,,,,,,,,,,,,,,,,,,,,,,43.931234,-75.90181
1057,duck-mountain-kamsack,North America,Canada,Saskatchewan,http://www.skiresort.info/ski-resort/duck-mountain-kamsack/,637,1.8,1.7,1,,,,0,,30,25,19,Canadian Dollar,1.5,1.8,1.5,,,,,,,,,,,,,,,,,,0,,,,,51.5654703,-101.8870876
1069,dynamite-hill-chestertown,North America,USA,New York,http://www.skiresort.info/ski-resort/dynamite-hill-chestertown/,281,0.2,0,0,,,,,,0,0,0,-,1,1,1,,,,,,,,,,,,,,,,,0,,,,,,43.6581473,-73.7962589
1074,eagle-island-park,North America,USA,Idaho,http://www.skiresort.info/ski-resort/eagle-island-park/,781,0.1,0,0,,,,,,20,0,20,US Dollar,1,1,1,,,,,,,,,,,,,,,,,,0,,,,,43.6907816,-116.3942128
1075,eagle-pass-heliskiing,North America,Canada,British Columbia,http://www.skiresort.info/ski-resort/eagle-pass-heliskiing/,3205,,,,,,,,,0,0,0,-,,,,,,,,,,,,,,,,,,,,,,,,0,,50.966389,-118.3688889
1076,eagle-point,North America,USA,Utah,http://www.skiresort.info/ski-resort/eagle-point/,3230,6,9,5,,,0,0,,65,0,50,US Dollar,2.4,2.8,3,,,,,,,,,,,,,,,,,,,,,,,38.3203245,-112.3838562
1077,eagle-rock,North America,USA,Pennsylvania,http://www.skiresort.info/ski-resort/eagle-rock/,550,,,,,,,,,42,0,28,US Dollar,,,,,,,,,,,,,,,,,,,,,,,,,,41.452561,-79.575327
1079,eaglecrest-juneau,North America,USA,Alaska,http://www.skiresort.info/ski-resort/eaglecrest-juneau/,820,3.4,6.8,6.8,,,0,,,52,42,28,US Dollar,2.3,2.6,3,,,,,,,,,,,,,,,,,,,,,,,58.2675,-134.5139999
1080,earl-bales-north-york-toronto,North America,Canada,Ontario,http://www.skiresort.info/ski-resort/earl-bales-north-york-toronto/,193,0.2,0.8,0,,,0,,,0,0,0,-,1.3,1.3,2.9,,,,,,,,,,,,,,,,,0,,,,,,43.7534869,-79.4322811
1081,eaton-mountain,North America,USA,Maine,http://www.skiresort.info/ski-resort/eaton-mountain/,140,1.5,0.5,0,,,,,,15,0,0,US Dollar,,,,,,,,,,,,,,,,,,,,,,,,,,44.767699,-69.6174431
1086,echo-mountain-park-idaho-springs,North America,USA,Colorado,http://www.skiresort.info/ski-resort/echo-mountain-park-idaho-springs/,3401,2,1,0,,,0,,,49,0,39,US Dollar,1.5,1.5,2.9,,,,,,,,,,,,,,,,,0,0,,,,,39.6845817,-105.5193928
1088,echo-valley-lake-chelan,North America,USA,Washington State,http://www.skiresort.info/ski-resort/echo-valley-lake-chelan/,950,1,0.4,0.1,,,,,,25,0,0,US Dollar,,,,,,,,,,,,,,,,,,,,,,,,,,47.9356998,-120.0553575
1091,edelweiss-valley-ski-resort,North America,Canada,Quebec,http://www.skiresort.info/ski-resort/edelweiss-valley-ski-resort/,350,,,,,,0,,,37.39,32.72,22.09,Canadian Dollar,1,1,3.2,,,,,,,,,,,,,,,,,,0,,,,,45.6467589,-75.8506025
1093,edmonton-ski-club,North America,Canada,Alberta,http://www.skiresort.info/ski-resort/edmonton-ski-club/,662,0.2,0.6,0.2,,,,0,,30,27,25,Canadian Dollar,1.3,1.6,1.4,,,,,,,,,,,,,,,,,0,,,,,,53.534401,-113.476478
1119,eldora-mountain,North America,USA,Colorado,http://www.skiresort.info/ski-resort/eldora-mountain/,3292,11,26,15,,,0,0,,94,0,54,US Dollar,3.1,3.4,3.2,,,,,,,,,,,,,,,,,0,,,,,,39.9372203,-105.5826786
1121,elk-mountain,North America,USA,Pennsylvania,http://www.skiresort.info/ski-resort/elk-mountain/,820,3,8,4,,,,,,66,0,50,US Dollar,,,,,,,,,,,,,,,,,,,,,,,,,,41.7234046,-75.5534275
1122,elk-ridge-williams,North America,USA,Arizona,http://www.skiresort.info/ski-resort/elk-ridge-williams/,2452,0.6,1.5,0.9,,,,,,40,0,25,US Dollar,,,,,,,,,,,,,,,,,,,,,,,,,,35.2146646,-112.1922123
1124,elko-snobowl,North America,USA,Nevada,http://www.skiresort.info/ski-resort/elko-snobowl/,2130,1.5,1.5,0,,,0,,,20,0,15,US Dollar,1.5,1.5,2.9,,,,,,,,,,,,,,,,,0,,,,,,40.9089065,-115.8520453
1188,fairmont-hot-springs,North America,Canada,British Columbia,http://www.skiresort.info/ski-resort/fairmont-hot-springs/,1526,4,4,2,,,0,0,,47,37,24,Canadian Dollar,2,2.3,2.8,,,,,,,,,,,,,,,,,,0,,,,,50.335927,-115.8511861
1189,fairmont-hot-springs-fairmont,North America,USA,Montana,http://www.skiresort.info/ski-resort/fairmont-hot-springs-fairmont/,0,,,,,,,,,0,0,0,-,,,,,,,,,,,,,,,,,,,,,,,,,,46.0429809,-112.8100362
1190,fairview-ski-hill,North America,Canada,Alberta,http://www.skiresort.info/ski-resort/fairview-ski-hill/,580,1.4,0.8,1.8,,,,0,,23,20,12,Canadian Dollar,1.5,1.8,1.5,,,,,,,,,,,,,,,,,0,,,,,,55.995608,-118.604935
1192,falcon-ridge,North America,Canada,Manitoba,http://www.skiresort.info/ski-resort/falcon-ridge/,367,1.2,0.3,0,,,,0,,25,21,16,Canadian Dollar,1.3,1.3,1.1,,,,,,,,,,,,,,,,,0,,,,,,49.8239496,-97.1871532
1217,ferguson-ridge,North America,USA,Oregon,http://www.skiresort.info/ski-resort/ferguson-ridge/,1780,2,2,1,,,,,,20,0,10,US Dollar,,,,,,,,,,,,,,,,,,,,,,,,,,45.2620993,-117.1371089
1219,fernie,North America,Canada,British Columbia,http://www.skiresort.info/ski-resort/fernie/,2134,42,58,42,,,0,0,,104.95,78.95,41.95,Canadian Dollar,4,5,3,4,5,4,5,4,3,5,4,3,4,4,4,5,4,3,,,0,,,,0,49.5040452,-115.0630649
1256,forbidden,North America,Canada,British Columbia,http://www.skiresort.info/ski-resort/forbidden/,1050,,,,,,,,,0,0,0,-,,,,,,,,,,,,,,,,,,,,,,,,,,49.0142228,-119.6973641
1264,fort-wainwrightbirch-hill-fairbanks,North America,USA,Alaska,http://www.skiresort.info/ski-resort/fort-wainwrightbirch-hill-fairbanks/,300,1.5,0.3,0,,,,,,0,0,0,-,,,,,,,,,,,,,,,,,,,,,,,,,,64.8733591,-147.6442449
1265,fortress-mountain,North America,Canada,Alberta,http://www.skiresort.info/ski-resort/fortress-mountain/,2370,7,15,8,,,0,0,,0,0,0,-,2.7,3,2.6,,,,,,,,,,,,,,,,,,,,,,0,52.3894444,-117.7216666
1266,four-lakes,North America,USA,Illinois,http://www.skiresort.info/ski-resort/four-lakes/,220,1,0,0,,,,,,28,0,0,US Dollar,,,,,,,,,,,,,,,,,,,,,,,,,,41.7829304,-88.081832
1269,four-seasons,North America,USA,New York,http://www.skiresort.info/ski-resort/four-seasons/,185,0.4,0.1,0,,,,,,24,0,18,US Dollar,,,,,,,,,,,,,,,,,,,,,0,,,,,40.762142,-73.971429
1271,fox-hill,North America,USA,Wisconsin,http://www.skiresort.info/ski-resort/fox-hill/,385,0.5,0.3,0.2,,,,,,0,0,0,-,,,,,,,,,,,,,,,,,,,,,,,,,,44.2326714,-87.6515346
1285,frost-fire-mountain,North America,USA,North Dakota,http://www.skiresort.info/ski-resort/frost-fire-mountain/,440,0.7,0.6,0.2,,,,,,40,0,30,US Dollar,,,,,,,,,,,,,,,,,,,,,0,,,,,48.9115064,-98.0675928
1323,galena,North America,Canada,British Columbia,http://www.skiresort.info/ski-resort/galena/,3100,,,,,,,,,0,0,0,-,,,,,,,,,,,,,,,,,,,,,,,,0,,50.6638257,-117.8451919
1326,gallix,North America,Canada,Quebec,http://www.skiresort.info/ski-resort/gallix/,205,3,2,4,,,,,,30.88,23.7,18.48,Canadian Dollar,,,,,,,,,,,,,,,,,,,,,,,,,,50.134429,-66.6189629
1359,georgian-peaks-club,North America,Canada,Ontario,http://www.skiresort.info/ski-resort/georgian-peaks-club/,430,2,6,1,,,0,0,,75,60,60,Canadian Dollar,2,2.3,3.4,,,,,,,,,,,,,,,,,,,,,,,44.5350638,-80.3788678
1373,giants-ridge,North America,USA,Minnesota,http://www.skiresort.info/ski-resort/giants-ridge/,560,4,5,3,,,0,0,,54,0,38,US Dollar,2.1,2.5,3.3,,,,,,,,,,,,,,,,,,0,,,,,47.5765197,-92.3031692
1382,gladstone-sports-park,North America,USA,Michigan,http://www.skiresort.info/ski-resort/gladstone-sports-park/,220,0.4,0.1,0,,,,,,12,0,5,US Dollar,,,,,,,,,,,,,,,,,,,,,,,,,,45.8599184,-87.0397263
1386,glen-eden,North America,Canada,Ontario,http://www.skiresort.info/ski-resort/glen-eden/,320,3,2,0,,,0,,,38,0,33,Canadian Dollar,1.7,1.7,3,,,,,,,,,,,,,,,,,,0,,,,,43.508534,-79.942617
1387,glen-mountain-park,North America,Canada,Quebec,http://www.skiresort.info/ski-resort/glen-mountain-park/,0,,,,,,0,0,,0,0,0,-,,,,,,,,,,,,,,,,,,,,0,,,,,,45.154488,-72.366428
1423,gore-mountain,North America,USA,New York,http://www.skiresort.info/ski-resort/gore-mountain/,1097,6.7,28.2,23.3,,0,0,0,,83,65,46,US Dollar,3.3,3.6,3.6,,,,,,,,,,,,,,,,,0,0,,,,,43.6732782,-74.0068455
1429,gothics,North America,Canada,British Columbia,http://www.skiresort.info/ski-resort/gothics/,2800,,,,,,,,,0,0,0,-,,,,,,,,,,,,,,,,,,,,,,,,0,,51.640201,-118.4889099
1441,granby-ranch,North America,USA,Colorado,http://www.skiresort.info/ski-resort/granby-ranch/,2804,6,10,4,,,0,0,,74,0,44,US Dollar,2.4,2.7,3.5,,,,,,,,,,,,,,,,,,0,,,,,40.0452206,-105.9061962
1443,grand-geneva,North America,USA,Wisconsin,http://www.skiresort.info/ski-resort/grand-geneva/,304,1.2,0.4,0.2,,,,,,53,0,41,US Dollar,,,,,,,,,,,,,,,,,,,,,0,,,,,42.6025797,-88.4060541
1445,grand-targhee,North America,USA,Wyoming,http://www.skiresort.info/ski-resort/grand-targhee/,3048,5,15,15,,,0,,,90,0,42,US Dollar,2.9,3.2,3.8,,,,,,,,,,,,,,,,,,0,,,,0,43.787113,-110.959296
1452,granite-gorge,North America,USA,New Hampshire,http://www.skiresort.info/ski-resort/granite-gorge/,404,3,2,1,,,0,,,49,0,42,US Dollar,1.7,2,2.9,,,,,,,,,,,,,,,,,0,0,,,,,42.970978,-72.212044
1453,granite-peak-at-rib-mountain-state-park,North America,USA,Wisconsin,http://www.skiresort.info/ski-resort/granite-peak-at-rib-mountain-state-park/,594,10,5,5,,,0,,0,80,0,60,US Dollar,2.4,2.8,3.4,,,,,,,,,,,,,,,,,0,,,,,,44.921581,-89.688221
1454,granlibakken,North America,USA,Western United States,http://www.skiresort.info/ski-resort/granlibakken/,2015,1,1,0,,,,0,,35,0,25,US Dollar,1.3,1.3,1.4,,,,,,,,,,,,,,,,,0,,,,,,39.1563669,-120.154041
1458,great-bear-ski-area,North America,USA,South Dakota,http://www.skiresort.info/ski-resort/great-bear-ski-area/,470,1.5,2,1,,,,,,26,0,0,US Dollar,,,,,,,,,,,,,,,,,,,,,,,,,,43.578002,-96.664547
1459,great-divide,North America,USA,Montana,http://www.skiresort.info/ski-resort/great-divide/,2210,10,20,20,,,0,,,40,30,20,US Dollar,3.1,3.4,3,,,,,,,,,,,,,,,,,0,,,,,,45.8140865,-112.7108367
1460,great-northern-snow-cat-trout-lake,North America,Canada,British Columbia,http://www.skiresort.info/ski-resort/great-northern-snow-cat-trout-lake/,0,,,,,,,,,0,0,0,-,,,,,,,,,,,,,,,,,,,,,,,,,0,50.663631,-117.5653149
1464,greek-peak,North America,USA,New York,http://www.skiresort.info/ski-resort/greek-peak/,640,9,4,6,,,,,0,68,0,55,US Dollar,,,,,,,,,,,,,,,,,,,,,0,,,,,42.5082644,-76.1454427
1491,grouse-mountain,North America,Canada,British Columbia,http://www.skiresort.info/ski-resort/grouse-mountain/,1250,5.2,14.4,13.4,,,0,,0,63,45,28,Canadian Dollar,2,3,4,5,4,5,4,4,5,4,3,2,1,3,3,3,5,1,0,,,,,,,49.3801396,-123.081458
1521,gunstock,North America,USA,New Hampshire,http://www.skiresort.info/ski-resort/gunstock/,690,5,25,10,,,,,,86,74,62,US Dollar,,,,,,,,,,,,,,,,,,,,,,,,,,43.5256332,-71.3784045
1532,gwynne-valley,North America,Canada,Alberta,http://www.skiresort.info/ski-resort/gwynne-valley/,742,0.7,0.3,0,,,,0,,19,17,15,Canadian Dollar,1.3,1.3,1.3,,,,,,,,,,,,,,,,,0,,,,,,52.9851967,-113.2172478
1534,h2o-guides,North America,USA,Alaska,http://www.skiresort.info/ski-resort/h2o-guides/,0,,,,,,,,,0,0,0,-,,,,,,,,,,,,,,,,,,,,,,,,0,,61.1297445,-146.250727
1581,hanson-hills,North America,USA,Michigan,http://www.skiresort.info/ski-resort/hanson-hills/,390,0.8,0.2,0,,,,,,30,0,0,US Dollar,,,,,,,,,,,,,,,,,,,,,,,,,,44.6455709,-84.7534741
1590,harper-mountain,North America,Canada,British Columbia,http://www.skiresort.info/ski-resort/harper-mountain/,1520,5,10,5,,,0,0,,44.76,0,28.57,Canadian Dollar,2.4,2.8,2.7,,,,,,,,,,,,,,,,,0,,,,,,50.7236425,-120.1383357
1592,hart-highlands-prince-george,North America,Canada,British Columbia,http://www.skiresort.info/ski-resort/hart-highlands-prince-george/,760,1,0,0,,,,0,,0,0,0,-,1.3,1,1.4,,,,,,,,,,,,,,,,,0,,,,,,53.975,-122.789766
1620,haystack-mountain-the-hermitage-club,North America,USA,Vermont,http://www.skiresort.info/ski-resort/haystack-mountain-the-hermitage-club/,975,5.6,9.5,4.2,,,0,,,0,0,0,-,2.4,2.7,3.7,,,,,,,,,,,,,,,,,,,,,,,42.9139691,-72.9195441
1622,heavenly,North America,USA,Western United States,http://www.skiresort.info/ski-resort/heavenly/,3060,18,42,34,,0,0,,0,152,125,90,US Dollar,4,5,4,5,5,3,4,4,4,4,4,4,4,4,4,5,5,1,0,0,0,,,,,38.939926,-119.9771868
1631,heiliger-huegel-hubertus,North America,USA,Wisconsin,http://www.skiresort.info/ski-resort/heiliger-huegel-hubertus/,391,0.6,0.4,0.2,,,0,,,25,0,0,US Dollar,1.3,1.6,2.7,,,,,,,,,,,,,,,,,0,,,,,,43.253051,-88.3129969
1639,hemlock-valley,North America,Canada,British Columbia,http://www.skiresort.info/ski-resort/hemlock-valley/,1372,2,6,2,,,0,,,53.33,43.81,27.62,Canadian Dollar,2,2.3,2.8,,,,,,,,,,,,,,,,,0,,,,,,49.376709,-121.934807
1646,hermon-mountain,North America,USA,Maine,http://www.skiresort.info/ski-resort/hermon-mountain/,140,2,0.5,0.5,,,0,0,,27,0,22,US Dollar,1.5,1.8,2.3,,,,,,,,,,,,,,,,,0,,,,,,44.7807854,-68.9572709
1653,hesperus-ski-area,North America,USA,Colorado,http://www.skiresort.info/ski-resort/hesperus-ski-area/,2706,3,5,2,,,0,,,39,33,28,US Dollar,2,2.3,2.8,,,,,,,,,,,,,,,,,0,,,,,,37.2995933,-108.055101
1661,heyden-aweres,North America,Canada,Ontario,http://www.skiresort.info/ski-resort/heyden-aweres/,0,,,,,,,,,0,0,0,-,,,,,,,,,,,,,,,,,,,,,,,,,,46.6426011,-84.3077087
1662,hickory-ski-center,North America,USA,New York,http://www.skiresort.info/ski-resort/hickory-ski-center/,583,3,3,2,,,,,,45,0,30,US Dollar,,,,,,,,,,,,,,,,,,,,,,,,,,43.4744097,-73.8173438
1669,hidden-valley-ab,North America,Canada,Alberta,http://www.skiresort.info/ski-resort/hidden-valley-ab/,1400,3,3,2,,,0,0,,41,35,28,Canadian Dollar,1.9,2.3,2.8,,,,,,,,,,,,,,,,,0,,,,,,51.1513095,-114.1182466
1670,hidden-valley-highlands,North America,Canada,Ontario,http://www.skiresort.info/ski-resort/hidden-valley-highlands/,380,1.8,0.7,0.5,,,0,,,73,64,53,Canadian Dollar,1.5,1.8,3,,,,,,,,,,,,,,,,,0,,,,,,45.356103,-79.129683
1671,hidden-valley-mo,North America,USA,Missouri,http://www.skiresort.info/ski-resort/hidden-valley-mo/,240,1,2,1,,,0,,,48,0,30,US Dollar,1.5,1.9,2.9,,,,,,,,,,,,,,,,,0,0,,,,,38.5295823,-90.6445331
1672,hidden-valley-pa,North America,USA,Pennsylvania,http://www.skiresort.info/ski-resort/hidden-valley-pa/,890,4,3,2,,,,,,69,0,58,US Dollar,,,,,,,,,,,,,,,,,,,,,0,,,,,40.0571706,-79.2558937
1676,highland-powder-cat-skiing,North America,Canada,British Columbia,http://www.skiresort.info/ski-resort/highland-powder-cat-skiing/,0,,,,,,,,,0,0,0,-,,,,,,,,,,,,,,,,,,,,,,,,,0,49.4413256,-117.534839
1680,hillberg-ski-area,North America,USA,Alaska,http://www.skiresort.info/ski-resort/hillberg-ski-area/,120,0.9,0.3,0,,,,,,20,0,0,US Dollar,,,,,,,,,,,,,,,,,,,,,,,,,,61.275284,-149.820643
1681,hilltop-anchorage,North America,USA,Alaska,http://www.skiresort.info/ski-resort/hilltop-anchorage/,140,4,1,0,,,0,0,,32,30,20,US Dollar,1.7,1.7,2.8,,,,,,,,,,,,,,,,,0,,,,,,61.140846,-149.7449609
1746,hockley-valley,North America,Canada,Ontario,http://www.skiresort.info/ski-resort/hockley-valley/,423,,,,,,0,0,,49,0,42,Canadian Dollar,,,,,,,,,,,,,,,,,,,,0,,,,,,43.9775621,-80.0469177
1760,hogadon-ski-area,North America,USA,Wyoming,http://www.skiresort.info/ski-resort/hogadon-ski-area/,2438,1.9,1.6,1.5,,,,,,42,37,27,US Dollar,,,,,,,,,,,,,,,,,,,,,,,,,,42.7452867,-106.3389955
1783,holiday-mountain-mb,North America,Canada,Manitoba,http://www.skiresort.info/ski-resort/holiday-mountain-mb/,460,0.6,1,0.3,,,0,,,44,38,28,Canadian Dollar,1.3,1.6,3,,,,,,,,,,,,,,,,,,0,,,,,49.237733,-98.693747
1784,holiday-mountain-ny,North America,USA,New York,http://www.skiresort.info/ski-resort/holiday-mountain-ny/,440,1,2,1,,,,,,42,0,0,US Dollar,,,,,,,,,,,,,,,,,,,,,,,,,,41.629592,-74.6144896
1785,holiday-valley,North America,USA,New York,http://www.skiresort.info/ski-resort/holiday-valley/,685,16,13,19,,,0,,,75,0,59,US Dollar,3,3.4,3.5,,,,,,,,,,,,,,,,,0,,,,,,42.2577157,-78.6768496
1786,holimont,North America,USA,New York,http://www.skiresort.info/ski-resort/holimont/,689,4,6,10,,,0,,,70,0,55,US Dollar,2.4,2.7,3.2,,,,,,,,,,,,,,,,,0,0,,,,,42.2732483,-78.689067
1795,homewood-mountain-resort,North America,USA,Western United States,http://www.skiresort.info/ski-resort/homewood-mountain-resort/,2402,6,13,1,,,0,0,,0,0,0,-,2.5,2.7,3.3,,,,,,,,,,,,,,,,,0,0,,,,,39.0855833,-120.1605391
1799,hoodoo-ski-area,North America,USA,Oregon,http://www.skiresort.info/ski-resort/hoodoo-ski-area/,1740,6,8,3,,,0,,,54,0,34,US Dollar,2.3,2.6,3,,,,,,,,,,,,,,,,,,,,,,,44.408755,-121.871381
1815,horseshoe-resort,North America,Canada,Ontario,http://www.skiresort.info/ski-resort/horseshoe-resort/,390,2,3.8,0.2,,,0,,,62,0,49,Canadian Dollar,1.7,1.9,3.3,,,,,,,,,,,,,,,,,,0,,,,,44.5494768,-79.672466
1825,howelsen-hill-steamboat-springs,North America,USA,Colorado,http://www.skiresort.info/ski-resort/howelsen-hill-steamboat-springs/,2175,1.7,1.5,0.8,,,0,0,,25,0,15,US Dollar,1.5,1.8,2.5,,,,,,,,,,,,,,,,,0,0,,,,,40.4805325,-106.8406049
1835,hudson-bay-mountain-smithers,North America,Canada,British Columbia,http://www.skiresort.info/ski-resort/hudson-bay-mountain-smithers/,1650,18,13,6,,,0,0,,60,45,30,Canadian Dollar,2.9,3.2,2.5,,,,,,,,,,,,,,,,,0,,,,,,54.780112,-127.1711829
1836,hudsons-hope-portage-mountain,North America,Canada,British Columbia,http://www.skiresort.info/ski-resort/hudsons-hope-portage-mountain/,843,0.2,0,0,,,,,,15,0,10,Canadian Dollar,1,1,1,,,,,,,,,,,,,,,,,0,,,,,,55.985,-122.1430555
1841,huff-hills,North America,USA,North Dakota,http://www.skiresort.info/ski-resort/huff-hills/,680,1.8,0.8,0.4,,,,,,30,0,25,US Dollar,,,,,,,,,,,,,,,,,,,,,,,,,,46.6268609,-100.723275
1846,hunt-hollow-ski-club,North America,USA,New York,http://www.skiresort.info/ski-resort/hunt-hollow-ski-club/,360,2,2,1,,,0,0,,55,0,45,US Dollar,1.7,2,2.9,,,,,,,,,,,,,,,,,0,,,,,,42.6459844,-77.4780707
1847,hunter-mountain,North America,USA,New York,http://www.skiresort.info/ski-resort/hunter-mountain/,975,18,18,19,,,0,0,0,80,0,64,US Dollar,3.2,3.6,3.4,,,,,,,,,,,,,,,,,0,,,,,,42.207763,-74.207797
1849,huntington,North America,USA,New York,http://www.skiresort.info/ski-resort/huntington/,0,,,,,,,,,0,0,0,-,,,,,,,,,,,,,,,,,,,,,,,,,,40.8681539,-73.425676
1851,hurricane-ridge,North America,USA,Washington State,http://www.skiresort.info/ski-resort/hurricane-ridge/,1676,2,2,1,,,,,,34,0,0,US Dollar,,,,,,,,,,,,,,,,,,,,,,,,,,47.9331457,-123.4096268
1855,hyland-ski-snowboard-area,North America,USA,Minnesota,http://www.skiresort.info/ski-resort/hyland-ski-snowboard-area/,310,0.6,0.4,0.2,,,0,,,34.49,0,30.76,US Dollar,1.3,1.6,3,,,,,,,,,,,,,,,,,,0,,,,,44.84363,-93.363611
1894,indian-lake,North America,USA,New York,http://www.skiresort.info/ski-resort/indian-lake/,599,0.6,0.3,0,,,,0,,0,0,0,-,1.2,1.2,1.5,,,,,,,,,,,,,,,,,,,,,,,43.7824501,-74.2653667
1895,indianhead-mountain,North America,USA,Michigan,http://www.skiresort.info/ski-resort/indianhead-mountain/,554,2,3,5,,,,,,65,0,52,US Dollar,,,,,,,,,,,,,,,,,,,,,0,,,,,46.500277,-89.970939
1900,innisfail,North America,Canada,Alberta,http://www.skiresort.info/ski-resort/innisfail/,955,0.4,0.4,0,,,,,,8,0,0,Canadian Dollar,1.2,1.2,1,,,,,,,,,,,,,,,,,0,,,,,,52.0274064,-113.9470957
1935,jack-frost-mountain,North America,USA,Pennsylvania,http://www.skiresort.info/ski-resort/jack-frost-mountain/,610,6,5.5,0.5,,,,,,58,0,45,US Dollar,,,,,,,,,,,,,,,,,,,,,,,,,,41.1011597,-75.6501205
1936,jackson-hole,North America,USA,Wyoming,http://www.skiresort.info/ski-resort/jackson-hole/,3185,16,50,50,,0,0,,0,149,0,91,US Dollar,4.4,4.7,3.6,,,,,,,,,,,,,,,,0,,,,,0,0,43.4799291,-110.7624282
1967,jay-peak,North America,USA,Vermont,http://www.skiresort.info/ski-resort/jay-peak/,1175,15,31,30,,,0,,0,82,0,64,US Dollar,3.7,4,3.2,,,,,,,,,,,,,,,,0,,0,,,,,44.9649254,-72.4602429
1983,jiminy-peak,North America,USA,Massachusetts,http://www.skiresort.info/ski-resort/jiminy-peak/,725,4.1,2,3,,,,,,81,70,61,US Dollar,,,,,,,,,,,,,,,,,,,,,0,,,,,42.5553893,-73.292165
2008,jumbo-glacier-resort-planned,North America,Canada,British Columbia,http://www.skiresort.info/ski-resort/jumbo-glacier-resort-planned/,0,,,,,,,,,0,0,0,-,,,,,,,,,,,,,,,,,,,,,,,,,,53.7266683,-127.6476205
2010,june-mountain,North America,USA,California,http://www.skiresort.info/ski-resort/june-mountain/,3075,2.1,12.9,20.7,,,0,,0,109,89,0,US Dollar,2.9,3.1,3.6,,,,,,,,,,,,,,,,,,,,,,,37.739932,-119.0701438
2050,kamiskotia,North America,Canada,Ontario,http://www.skiresort.info/ski-resort/kamiskotia/,410,4,2,2,,,0,0,,45,35,25,Canadian Dollar,1.9,2.3,2.8,,,,,,,,,,,,,,,,,,,,,,,48.583154,-81.630787
2119,kelly-canyon,North America,USA,Idaho,http://www.skiresort.info/ski-resort/kelly-canyon/,2030,4,5,3,,,0,,,40,0,32,US Dollar,2.1,2.5,3,,,,,,,,,,,,,,,,,,,,,,,46.715749,-115.2576333
2123,kendall-mountain-silverton,North America,USA,Colorado,http://www.skiresort.info/ski-resort/kendall-mountain-silverton/,3000,1,0.5,0.2,,,0,,,20,0,15,US Dollar,1.3,1.6,3,,,,,,,,,,,,,,,,,,,,,,,37.8112094,-107.6569087
2131,kettlebowl,North America,USA,Wisconsin,http://www.skiresort.info/ski-resort/kettlebowl/,542,0.3,1.1,0,,,,,,5,3,2,US Dollar,1.3,1.3,1,,,,,,,,,,,,,,,,,0,,,,,,45.2717983,-88.901379
2132,keyes-peak-florence,North America,USA,Wisconsin,http://www.skiresort.info/ski-resort/keyes-peak-florence/,450,0.5,0,0,,,,,,12,0,8,US Dollar,,,,,,,,,,,,,,,,,,,,,,,,,,45.8957406,-88.2994879
2133,keystone,North America,USA,Colorado,http://www.skiresort.info/ski-resort/keystone/,3651,25,65,45,,0,0,,0,159,0,92,US Dollar,4,5,4,5,5,3,4,4,4,5,4,4,4,5,4,4,5,3,,0,,,,,0,39.5791675,-105.9347384
2137,kicking-horse-golden,North America,Canada,British Columbia,http://www.skiresort.info/ski-resort/kicking-horse-golden/,2450,20,20,60,,0,0,,,104.95,78.95,41.95,Canadian Dollar,3,5,4,4,4,4,4,4,4,5,4,3,4,4,4,5,2,3,,,0,,,0,,51.3066595,-116.9827447
2146,killington,North America,USA,Vermont,http://www.skiresort.info/ski-resort/killington/,1285,37.4,43,46,,0,0,0,,115,0,89,US Dollar,4.4,4.8,3.7,,,,,,,,,,,,,,,,,0,0,,,,,43.6775677,-72.7798247
2147,kimberley,North America,Canada,British Columbia,http://www.skiresort.info/ski-resort/kimberley/,1982,15,35,30,,,0,0,,79.95,59.95,31.95,Canadian Dollar,3,4,3,4,5,3,4,4,4,5,3,3,4,4,5,4,4,3,,,0,,,,,49.6651567,-115.9967207
2148,king-pine-purity-spring-resort,North America,USA,New Hampshire,http://www.skiresort.info/ski-resort/king-pine-purity-spring-resort/,240,2.8,1.5,1,,,0,0,,55,0,38,US Dollar,1.7,2,2.9,,,,,,,,,,,,,,,,,,,,,,,43.860775,-71.0893681
2149,kingston,North America,Canada,Ontario,http://www.skiresort.info/ski-resort/kingston/,0,,,,,,,0,,0,0,0,-,,,,,,,,,,,,,,,,,,,,0,,,,,,44.2311717,-76.4859544
2150,kinosoo-ridge,North America,Canada,Alberta,http://www.skiresort.info/ski-resort/kinosoo-ridge/,647,1.5,2,1.5,,,0,,,33,0,27,Canadian Dollar,1.7,2.1,3,,,,,,,,,,,,,,,,,,0,,,,,54.440634,-110.017379
2151,kinsmen-little-red-river-park-prince-albert,North America,Canada,Saskatchewan,http://www.skiresort.info/ski-resort/kinsmen-little-red-river-park-prince-albert/,438,0.3,0,0,,,,,,10,0,0,Canadian Dollar,1.1,1,1,,,,,,,,,,,,,,,,,0,,,,,,53.2219265,-105.7129915
2164,kirkwood,North America,USA,Western United States,http://www.skiresort.info/ski-resort/kirkwood/,2987,15,30,20,,,0,0,,119,107,87,US Dollar,3.5,3.8,3.2,,,,,,,,,,,,,,,,,0,0,,,,0,38.7023082,-120.0722442
2169,kissing-bridge,North America,USA,New York,http://www.skiresort.info/ski-resort/kissing-bridge/,520,4.5,4.8,8.5,,,0,,,60,0,50,US Dollar,2.3,2.7,3,,,,,,,,,,,,,,,,,0,0,,,,,42.6001848,-78.6526985
2248,kootenay,North America,Canada,British Columbia,http://www.skiresort.info/ski-resort/kootenay/,2880,,,,,,,,,0,0,0,-,,,,,,,,,,,,,,,,,,,,,,,,0,,49.5700937,-116.8312394
2396,la-tuque,North America,Canada,Quebec,http://www.skiresort.info/ski-resort/la-tuque/,320,3,1,2,,,,,,27.5,0,22.5,Canadian Dollar,,,,,,,,,,,,,,,,,,,,,,,,,,47.4383405,-72.7839311
2403,labrador-mountain,North America,USA,New York,http://www.skiresort.info/ski-resort/labrador-mountain/,570,6,6,5,,,0,0,,53,0,43,US Dollar,2.3,2.7,2.9,,,,,,,,,,,,,,,,,,,,,,,42.741791,-76.030215
2423,lake-city-ski-hill,North America,USA,Colorado,http://www.skiresort.info/ski-resort/lake-city-ski-hill/,2771,0.7,0.3,0,,,,0,,15,0,7,US Dollar,1.3,1.3,1.5,,,,,,,,,,,,,,,,,,,,,,,38.0109874,-107.3116354
2425,lake-louise,North America,Canada,Alberta,http://www.skiresort.info/ski-resort/lake-louise/,2637,35,62,42,,0,0,0,0,104,79,39,Canadian Dollar,4,5,4,5,5,4,5,5,4,5,4,3,1,4,5,5,5,3,,,0,,,,,51.4253705,-116.1772552
2427,lakeridge-resort,North America,Canada,Ontario,http://www.skiresort.info/ski-resort/lakeridge-resort/,370,1.5,1,0.5,,,0,,,57.75,0,48.3,Canadian Dollar,1.5,1.8,2.9,,,,,,,,,,,,,,,,,0,0,,,,,44.0278045,-79.0630049
2450,las-vegas-ski-and-snowboard-resort-lee-canyon,North America,USA,Nevada,http://www.skiresort.info/ski-resort/las-vegas-ski-and-snowboard-resort-lee-canyon/,2856,0.3,5,2,,,0,,,70,0,60,US Dollar,1.9,2.1,2.8,,,,,,,,,,,,,,,,,0,0,,,,,36.3037018,-115.6796327
2451,las-vegas-wet-planned,North America,USA,Nevada,http://www.skiresort.info/ski-resort/las-vegas-wet-planned/,0,,,,,,,,,0,0,0,-,,,,,,,,,,,,,,,,,,,,,,,,,,36.1231348,-115.1717806
2452,last-frontier-bob-quinn-lake,North America,Canada,British Columbia,http://www.skiresort.info/ski-resort/last-frontier-bob-quinn-lake/,0,,,,,,,,,0,0,0,-,,,,,,,,,,,,,,,,,,,,,,,,0,,56.972222,-130.247222
2462,laurel-mountain,North America,USA,Pennsylvania,http://www.skiresort.info/ski-resort/laurel-mountain/,837,4,3,1,,,0,,,53,0,43,US Dollar,1.9,2.2,2.9,,,,,,,,,,,,,,,,,0,,,,,,40.2107916,-79.1851852
2463,laurentian-ski-hill-north-bay,North America,Canada,Ontario,http://www.skiresort.info/ski-resort/laurentian-ski-hill-north-bay/,325,1.3,0.2,0,,,0,,,34,0,28,Canadian Dollar,1.3,1.3,2.8,,,,,,,,,,,,,,,,,0,0,,,,,46.3377578,-79.4322181
2474,le-chantecler,North America,Canada,Quebec,http://www.skiresort.info/ski-resort/le-chantecler/,457,,,,,,0,,,45,39,34,Canadian Dollar,,,,,,,,,,,,,,,,,,,,,0,,,,,45.9499365,-74.1466722
2493,le-massif-de-charlevoix,North America,Canada,Quebec,http://www.skiresort.info/ski-resort/le-massif-de-charlevoix/,806,12,16,11,,0,0,0,,78,57,39,Canadian Dollar,2.9,3.3,4.2,,,,,,,,,,,,,,,,,,0,,,,,47.2799543,-70.5718336
2498,le-petit-chamonix,North America,Canada,Quebec,http://www.skiresort.info/ski-resort/le-petit-chamonix/,350,2,1,1,,,,,,0,0,0,-,,,,,,,,,,,,,,,,,,,,,,,,,,47.972557,-66.955855
2500,le-relais-lac-beauport,North America,Canada,Quebec,http://www.skiresort.info/ski-resort/le-relais-lac-beauport/,429,4,5,6,,,0,0,,40.88,32.18,22.61,Canadian Dollar,2.2,2.6,3.9,,,,,,,,,,,,,,,,,0,0,,,,,46.9413789,-71.2990775
2510,leavenworth-ski-hill,North America,USA,Washington State,http://www.skiresort.info/ski-resort/leavenworth-ski-hill/,520,1,0,0,,,,,,18,0,14,US Dollar,1.3,1,1,,,,,,,,,,,,,,,,,0,,,,,,47.5988356,-120.6686832
2570,liberty-mountain,North America,USA,Pennsylvania,http://www.skiresort.info/ski-resort/liberty-mountain/,355,3,4,2,,,0,0,,76,0,64,US Dollar,2,2.3,3,,,,,,,,,,,,,,,,,,0,,,,,39.76366,-77.375459
2593,little-mac-mackenzie,North America,Canada,British Columbia,http://www.skiresort.info/ski-resort/little-mac-mackenzie/,796,0.4,0.2,0,,,,0,,0,0,0,-,1.2,1.2,1.5,,,,,,,,,,,,,,,,,,,,,,,55.3391533,-123.0806968
2594,little-ski-hill,North America,USA,Idaho,http://www.skiresort.info/ski-resort/little-ski-hill/,1700,1.4,0,0,,,,,,15,0,12,US Dollar,,,,,,,,,,,,,,,,,,,,,,,,,,44.9301164,-116.1624784
2595,little-smoky,North America,Canada,Alberta,http://www.skiresort.info/ski-resort/little-smoky/,550,2,2,1,,,,,,25,0,21,Canadian Dollar,,,,,,,,,,,,,,,,,,,,,,,,,,54.737252,-117.1680341
2596,little-switzerland-ski-resort,North America,USA,Wisconsin,http://www.skiresort.info/ski-resort/little-switzerland-ski-resort/,380,1.1,1.3,0.6,,,0,0,,44,0,32,US Dollar,1.5,1.8,2.6,,,,,,,,,,,,,,,,,0,,,,,,43.3378391,-88.2789304
2597,lively,North America,Canada,Ontario,http://www.skiresort.info/ski-resort/lively/,310,0.3,0.2,0.1,,,,0,,14,12,10,Canadian Dollar,1.2,1.5,1.5,,,,,,,,,,,,,,,,,,,,,,,46.4365557,-81.1465746
2599,living-memorial-park-brattleboro,North America,USA,Vermont,http://www.skiresort.info/ski-resort/living-memorial-park-brattleboro/,189,0.5,0,0,,,,0,,5,0,0,US Dollar,1.1,1,1.5,,,,,,,,,,,,,,,,,,,,,,,42.8479991,-72.5864768
2606,loch-lomond,North America,Canada,Ontario,http://www.skiresort.info/ski-resort/loch-lomond/,442,,,,,,,,,51,42,20,Canadian Dollar,,,,,,,,,,,,,,,,,,,,,,,,,,48.2820238,-89.2987402
2624,lonesome-pine-trails-fort-kent,North America,USA,Maine,http://www.skiresort.info/ski-resort/lonesome-pine-trails-fort-kent/,299,1,1.6,2,,,,0,,20,0,17,US Dollar,1.5,1.8,1.4,,,,,,,,,,,,,,,,,0,,,,,,47.2460346,-68.5944676
2629,lookout-pass,North America,USA,Idaho,http://www.skiresort.info/ski-resort/lookout-pass/,1675,8,14,9,,,0,,,44,0,32,US Dollar,2.7,3.1,3,,,,,,,,,,,,,,,,,0,,,,,,47.4554862,-115.6968233
2630,loon-mountain,North America,USA,New Hampshire,http://www.skiresort.info/ski-resort/loon-mountain/,930,13,26,6,,0,0,,,95,83,71,US Dollar,3.1,3.4,3.8,,,,,,,,,,,,,,,,,,0,,,,,44.03597,-71.6214399
2632,loretto-ski-resort,North America,Canada,Ontario,http://www.skiresort.info/ski-resort/loretto-ski-resort/,0,,,,,,,,,0,0,0,-,,,,,,,,,,,,,,,,,,,,,,,,,,44.0620152,-79.9450207
2638,lost-trail-powder-mountain,North America,USA,Montana,http://www.skiresort.info/ski-resort/lost-trail-powder-mountain/,2550,15,25,10,,,0,,,42,0,32,US Dollar,3.2,3.5,3,,,,,,,,,,,,,,,,,0,,,,,,45.6935102,-113.9501248
2639,lost-valley,North America,USA,Maine,http://www.skiresort.info/ski-resort/lost-valley/,166,1,0.5,0.5,,,0,,,45,0,40,US Dollar,1.3,1.7,3,,,,,,,,,,,,,,,,,,,,,,,44.1340569,-70.2823728
2643,loup-loup-ski-bowl,North America,USA,Washington State,http://www.skiresort.info/ski-resort/loup-loup-ski-bowl/,1620,3,5,3,,,0,0,,48,37,27,US Dollar,2.1,2.5,2.8,,,,,,,,,,,,,,,,,0,,,,,,48.3943616,-119.91097
2644,loveland,North America,USA,Colorado,http://www.skiresort.info/ski-resort/loveland/,3871,12,38,43,,,0,0,,75,0,32,US Dollar,3,4,3,5,3,5,2,3,2,4,2,1,1,3,4,4,4,1,,,0,,,,,40.3977612,-105.0749801
2671,lutsen-mountains,North America,USA,Minnesota,http://www.skiresort.info/ski-resort/lutsen-mountains/,503,8,19,13,,0,0,,,82,0,67,US Dollar,2.9,3.2,3.6,,,,,,,,,,,,,,,,,,0,,,,,47.663713,-90.7135557
2675,lyndon-outing-club,North America,USA,Vermont,http://www.skiresort.info/ski-resort/lyndon-outing-club/,380,1.5,1,0.1,,,,0,,15,0,10,US Dollar,1.3,1.5,1.4,,,,,,,,,,,,,,,,,0,,,,,,44.5333103,-71.9872058
2676,lynx-creek,North America,USA,New Hampshire,http://www.skiresort.info/ski-resort/lynx-creek/,0,,,,,,,,,0,0,0,-,,,,,,,,,,,,,,,,,,,,,,,,,,43.1938516,-71.5723953
2687,mad-river-glen,North America,USA,Vermont,http://www.skiresort.info/ski-resort/mad-river-glen/,1108,14,17,15,,,0,,,82,0,68,US Dollar,3.1,3.5,3,,,,,,,,,,,,,,,,,,,,,,,44.2024842,-72.9175431
2688,mad-river-mountain,North America,USA,Ohio,http://www.skiresort.info/ski-resort/mad-river-mountain/,445,3,2,1.3,,,0,,,45,0,35,US Dollar,1.7,2,2.9,,,,,,,,,,,,,,,,,0,0,,,,,40.3180764,-83.6776953
2691,madawaska-mountain,North America,Canada,Ontario,http://www.skiresort.info/ski-resort/madawaska-mountain/,427,5,3,2,,,,,,0,0,0,-,,,,,,,,,,,,,,,,,,,,,,,,,,45.4362091,-77.6629282
2700,magic-mountain,North America,USA,Vermont,http://www.skiresort.info/ski-resort/magic-mountain/,868,7,7,9,,,0,,,67,59,48,US Dollar,2.6,3,3,,,,,,,,,,,,,,,,,,,,,,,43.201708,-72.772646
2701,magic-mountain-resort,North America,USA,Idaho,http://www.skiresort.info/ski-resort/magic-mountain-resort/,2207,3.5,3,4,,,,,,31,0,22,US Dollar,,,,,,,,,,,,,,,,,,,,,,,,,,42.1889598,-114.2853627
2730,mammoth-mountain,North America,USA,California,http://www.skiresort.info/ski-resort/mammoth-mountain/,3369,18.4,48.5,22.9,,0,0,0,0,159,130,64,US Dollar,4,5,4,5,4,4,5,5,4,5,4,4,5,4,5,5,5,3,,,,,,,,37.6307692,-119.0326342
2735,manning-park,North America,Canada,British Columbia,http://www.skiresort.info/ski-resort/manning-park/,1790,7,10,8,,,0,0,,57,47,37,Canadian Dollar,2.5,2.9,2.8,,,,,,,,,,,,,,,,,0,,,,,,49.064647,-120.781581
2736,mansfield-ski-club,North America,Canada,Ontario,http://www.skiresort.info/ski-resort/mansfield-ski-club/,370,0.6,2,1.4,,,0,0,,63,0,50,Canadian Dollar,1.5,1.8,2.7,,,,,,,,,,,,,,,,,0,0,,,,,44.195702,-80.052056
2741,maple-ski-ridge,North America,USA,New York,http://www.skiresort.info/ski-resort/maple-ski-ridge/,250,0.3,0.8,0.3,,,,,,0,0,0,-,,,,,,,,,,,,,,,,,,,,,,,,,,42.8177282,-74.0316482
2743,marble-mountain-steady-brook-humber-valley,North America,Canada,Newfoundland and Labrador,http://www.skiresort.info/ski-resort/marble-mountain-steady-brook-humber-valley/,546,4,8,6,,,0,0,,60,35,30,Canadian Dollar,2.4,2.7,3.6,,,,,,,,,,,,,,,,,,0,,,,,48.9481564,-57.8310109
2755,marmot-basin-jasper,North America,Canada,Alberta,http://www.skiresort.info/ski-resort/marmot-basin-jasper/,2410,26,26,39,,,0,,0,95,76,34,Canadian Dollar,3,5,4,5,4,4,4,4,5,4,3,2,1,4,5,5,4,1,,,,,,,,52.8011121,-118.0831592
2756,marquette-mountain,North America,USA,Michigan,http://www.skiresort.info/ski-resort/marquette-mountain/,390,1.5,5,3.5,,,0,,,46,0,41,US Dollar,2,2.3,3,,,,,,,,,,,,,,,,,0,,,,,,46.5082898,-87.4205293
2759,martock,North America,Canada,Nova Scotia,http://www.skiresort.info/ski-resort/martock/,185,2.5,0.5,0,,,0,0,,40,0,30,Canadian Dollar,1.5,1.5,2.5,,,,,,,,,,,,,,,,,0,,,,,,44.951598,-64.1605739
2766,massanutten,North America,USA,Virginia,http://www.skiresort.info/ski-resort/massanutten/,871,2,3.5,2.5,,,0,0,,70,0,60,US Dollar,1.9,2.3,2.9,,,,,,,,,,,,,,,,,0,0,,,,,38.4095701,-78.7378004
2769,massif-du-sud,North America,Canada,Quebec,http://www.skiresort.info/ski-resort/massif-du-sud/,915,2,2,10,,,,,,63.5,48.25,35.5,Canadian Dollar,,,,,,,,,,,,,,,,,,,,,,,,,,46.6292904,-70.4659555
2785,maverick-mountain,North America,USA,Montana,http://www.skiresort.info/ski-resort/maverick-mountain/,2596,6,8,6,,,0,,,36,0,22,US Dollar,2.5,2.9,3,,,,,,,,,,,,,,,,,,,,,,,45.4485354,-113.1631003
2789,mcbride,North America,Canada,British Columbia,http://www.skiresort.info/ski-resort/mcbride/,3000,,,,,,,,,0,0,0,-,,,,,,,,,,,,,,,,,,,,,,,,0,,53.301347,-120.168461
2790,mccauly-mountain,North America,USA,New York,http://www.skiresort.info/ski-resort/mccauly-mountain/,700,3,4,2,,,0,0,,30,0,25,US Dollar,2,2.3,2.4,,,,,,,,,,,,,,,,,0,,,,,,43.6971947,-74.9661585
2792,mcintyre,North America,USA,New Hampshire,http://www.skiresort.info/ski-resort/mcintyre/,155,2.5,0.5,0,,,0,,,36,0,32,US Dollar,1.5,1.5,3,,,,,,,,,,,,,,,,,,0,,,,,43.0065773,-71.4416724
2793,meadowlark-ski-lodge,North America,USA,Wyoming,http://www.skiresort.info/ski-resort/meadowlark-ski-lodge/,2828,3,4,3,,,0,0,,45,38,27,US Dollar,2,2.4,3,,,,,,,,,,,,,,,,,,,,,,,44.1740171,-107.214743
2795,meany-lodge,North America,USA,Washington State,http://www.skiresort.info/ski-resort/meany-lodge/,1027,1,1,0,,,,,,0,0,0,-,,,,,,,,,,,,,,,,,,,,,,,,,,47.2803081,-121.3200936
2799,medicine-lodge,North America,Canada,Alberta,http://www.skiresort.info/ski-resort/medicine-lodge/,1102,1.2,1.6,0.4,,,,0,,0,0,0,-,1.5,1.8,1.3,,,,,,,,,,,,,,,,,0,,,,,,53.566667,-117.0166671
2830,mica-heli-guides-mica-creek,North America,Canada,British Columbia,http://www.skiresort.info/ski-resort/mica-heli-guides-mica-creek/,0,,,,,,,,,0,0,0,-,,,,,,,,,,,,,,,,,,,,,,,,0,,52.0058999,-118.564275
2834,middlebury-college-snow-bowl,North America,USA,Vermont,http://www.skiresort.info/ski-resort/middlebury-college-snow-bowl/,810,5,4,6,,,0,,0,55,45,15,US Dollar,2.2,2.6,3,,,,,,,,,,,,,,,,,,,,,,,43.9391922,-72.9575872
2841,mike-wiegele-blue-river,North America,Canada,British Columbia,http://www.skiresort.info/ski-resort/mike-wiegele-blue-river/,3569,,,,,,,,,0,0,0,-,,,,,,,,,,,,,,,,,,,,,,,,0,0,52.1130117,-119.3038428
2854,minnedosa-ski-valley,North America,Canada,Manitoba,http://www.skiresort.info/ski-resort/minnedosa-ski-valley/,600,0.8,0.6,0.2,,,,,,37,0,35,Canadian Dollar,,,,,,,,,,,,,,,,,,,,,,,,,,50.3197264,-99.8780823
2858,misery-mountain,North America,Canada,Alberta,http://www.skiresort.info/ski-resort/misery-mountain/,470,3,3,2,,,,,,31,25,19,Canadian Dollar,,,,,,,,,,,,,,,,,,,,,,,,,,56.226832,-117.3026479
2860,missaukee-mountain,North America,USA,Michigan,http://www.skiresort.info/ski-resort/missaukee-mountain/,0,,,,,,,,,0,0,0,-,,,,,,,,,,,,,,,,,,,,,,,,,,44.3905701,-85.2215749
2861,mission-ridge,North America,Canada,Saskatchewan,http://www.skiresort.info/ski-resort/mission-ridge/,560,2,2,1,,,,,,32.38,26.67,20,Canadian Dollar,,,,,,,,,,,,,,,,,,,,,0,,,,,50.755504,-103.781693
2862,misty-ridge,North America,Canada,Alberta,http://www.skiresort.info/ski-resort/misty-ridge/,675,0.6,0.4,0,,,,0,,25,0,20,Canadian Dollar,1.3,1.3,1.5,,,,,,,,,,,,,,,,,,,,,,,54.3618422,-114.5410705
2884,mohawk-mountain,North America,USA,Connecticut,http://www.skiresort.info/ski-resort/mohawk-mountain/,454,3,2,3,,,0,,,60,0,52,US Dollar,1.9,2.3,3,,,,,,,,,,,,,,,,,,,,,,,41.838231,-73.3150586
2894,monarch,North America,USA,Colorado,http://www.skiresort.info/ski-resort/monarch/,3630,5,14,12,,,0,,,74,45,30,US Dollar,2.7,3,3,,,,,,,,,,,,,,,,,,0,,,,,38.5526022,-106.2939187
2895,monashee,North America,Canada,British Columbia,http://www.skiresort.info/ski-resort/monashee/,3140,,,,,,,,,0,0,0,-,,,,,,,,,,,,,,,,,,,,,,,,0,,50.13,-118.4499999
2896,monashee-powder-adventures-coldstream,North America,Canada,British Columbia,http://www.skiresort.info/ski-resort/monashee-powder-adventures-coldstream/,0,,,,,,,,,0,0,0,-,,,,,,,,,,,,,,,,,,,,,,,,,0,50.2095729,-119.2802743
2903,mont-adstock,North America,Canada,Quebec,http://www.skiresort.info/ski-resort/mont-adstock/,810,3,4,5,,,,,,38.5,30,25.75,Canadian Dollar,,,,,,,,,,,,,,,,,,,,,,,,,,46.0226905,-71.1971385
2904,mont-apic,North America,Canada,Quebec,http://www.skiresort.info/ski-resort/mont-apic/,210,2,1,2,,,,,,25,0,18,Canadian Dollar,,,,,,,,,,,,,,,,,,,,,,,,,,46.228997,-71.669526
2905,mont-avalanche,North America,Canada,Quebec,http://www.skiresort.info/ski-resort/mont-avalanche/,555,3,2,2,,,0,,,32,27,21,Canadian Dollar,1.9,2.3,3,,,,,,,,,,,,,,,,,,0,,,,,45.9701029,-74.3469339
2906,mont-avila,North America,Canada,Quebec,http://www.skiresort.info/ski-resort/mont-avila/,416,5,5,3,,,0,,,39.99,0,28.99,Canadian Dollar,2.2,2.5,3.3,,,,,,,,,,,,,,,,,,,,,,,45.886041,-74.131592
2907,mont-bechervaise,North America,Canada,Quebec,http://www.skiresort.info/ski-resort/mont-bechervaise/,310,4,4,5,,,,,,31,0,20,Canadian Dollar,,,,,,,,,,,,,,,,,,,,,,,,,,48.8459418,-64.5410755
2908,mont-bellevue,North America,Canada,Quebec,http://www.skiresort.info/ski-resort/mont-bellevue/,332,2,1,0,,,0,0,,19.5,17.5,17,Canadian Dollar,1.5,1.5,2.6,,,,,,,,,,,,,,,,,0,0,,,,,45.3995516,-71.8942377
2909,mont-belu,North America,Canada,Quebec,http://www.skiresort.info/ski-resort/mont-belu/,200,2,4,4,,,,,,25,0,20,Canadian Dollar,,,,,,,,,,,,,,,,,,,,,,,,,,48.320556,-70.83
2910,mont-biencourt,North America,Canada,Quebec,http://www.skiresort.info/ski-resort/mont-biencourt/,485,2,3,3,,,,,,0,0,0,-,,,,,,,,,,,,,,,,,,,,,,,,,,47.9815043,-68.5601113
2911,mont-blanc,North America,Canada,Quebec,http://www.skiresort.info/ski-resort/mont-blanc/,556,7,12,16,,,0,,,52,41,26,Canadian Dollar,3,4,3,4,4,5,4,3,3,3,3,2,3,4,4,3,3,1,,,0,,,,,46.109076,-74.4832549
2912,mont-cascades,North America,Canada,Quebec,http://www.skiresort.info/ski-resort/mont-cascades/,305,4,11,5,,,0,0,,41,32,24,Canadian Dollar,2.4,2.7,3,,,,,,,,,,,,,,,,,,0,,,,,45.5924199,-75.8488709
2913,mont-castor,North America,Canada,Quebec,http://www.skiresort.info/ski-resort/mont-castor/,385,3,2,4,,,,,,29.25,20.75,16.25,Canadian Dollar,,,,,,,,,,,,,,,,,,,,,,,,,,46.066666,-74.3
2914,mont-chalco,North America,Canada,Quebec,http://www.skiresort.info/ski-resort/mont-chalco/,503,1,1.5,1.5,,,,,,24.35,0,14.79,Canadian Dollar,,,,,,,,,,,,,,,,,,,,,,,,,,49.9147742,-74.3053488
2915,mont-chilly,North America,Canada,Quebec,http://www.skiresort.info/ski-resort/mont-chilly/,311,1,0.7,0.8,,,,0,,20,0,0,Canadian Dollar,1.3,1.7,1.5,,,,,,,,,,,,,,,,,,,,,,,45.9145505,-76.7456388
2916,mont-christie,North America,Canada,Quebec,http://www.skiresort.info/ski-resort/mont-christie/,0,,,,,,,,,0,0,0,-,,,,,,,,,,,,,,,,,,,,,,,,,,52.9399159,-73.5491361
2917,mont-comi,North America,Canada,Quebec,http://www.skiresort.info/ski-resort/mont-comi/,575,2,4,6,,,,,,39.14,31.31,17.4,Canadian Dollar,,,,,,,,,,,,,,,,,,,,,,,,,,48.4669444,-68.2169443
2918,mont-daniel,North America,Canada,Quebec,http://www.skiresort.info/ski-resort/mont-daniel/,0,,,,,,,,,0,0,0,-,,,,,,,,,,,,,,,,,,,,,,,,,,46.1979235,-74.6155631
2921,mont-du-lac,North America,USA,Wisconsin,http://www.skiresort.info/ski-resort/mont-du-lac/,280,0.5,1.4,2,,,,,,39.99,0,24.99,US Dollar,,,,,,,,,,,,,,,,,,,,,,,,,,46.6545859,-92.2850062
2922,mont-edouard-lanse-saint-jean,North America,Canada,Quebec,http://www.skiresort.info/ski-resort/mont-edouard-lanse-saint-jean/,650,7,9,15,,,,,,45,35,25,Canadian Dollar,,,,,,,,,,,,,,,,,,,,,0,,,,,48.151389,-70.283611
2923,mont-farlagne,North America,Canada,New Brunswick,http://www.skiresort.info/ski-resort/mont-farlagne/,338,3,3.5,3.5,,,0,0,,36,0,28,Canadian Dollar,2,2.4,2.8,,,,,,,,,,,,,,,,,,0,,,,,47.401389,-68.390833
2924,mont-fortin,North America,Canada,Quebec,http://www.skiresort.info/ski-resort/mont-fortin/,142,1,3,7,,,,,,15,0,10,Canadian Dollar,,,,,,,,,,,,,,,,,,,,,,,,,,48.436667,-71.228056
2925,mont-gabriel,North America,Canada,Quebec,http://www.skiresort.info/ski-resort/mont-gabriel/,432,4,3,1,,,,,,36.99,0,27.99,Canadian Dollar,,,,,,,,,,,,,,,,,,,,,0,,,,,45.952109,-74.1360289
2926,mont-garceau,North America,Canada,Quebec,http://www.skiresort.info/ski-resort/mont-garceau/,717,4,3,3,,,0,,,42,32,25,Canadian Dollar,2,2.4,3,,,,,,,,,,,,,,,,,,0,,,,,46.337413,-74.220079
2928,mont-gleason,North America,Canada,Quebec,http://www.skiresort.info/ski-resort/mont-gleason/,340,2,4,2,,,,,,32.39,28.48,25.44,Canadian Dollar,,,,,,,,,,,,,,,,,,,,,0,,,,,45.9317298,-71.936585
2929,mont-grand-fonds,North America,Canada,Quebec,http://www.skiresort.info/ski-resort/mont-grand-fonds/,735,3,4,3,,,0,0,,48.27,0,32.18,Canadian Dollar,2,2.4,2.5,,,,,,,,,,,,,,,,,,,,,,,47.7666666,-70.0833333
2930,mont-habitant,North America,Canada,Quebec,http://www.skiresort.info/ski-resort/mont-habitant/,396,,,,,,,,,41,0,28,Canadian Dollar,,,,,,,,,,,,,,,,,,,,,0,,,,,45.8830555,-74.1669444
2931,mont-kanasuta,North America,Canada,Quebec,http://www.skiresort.info/ski-resort/mont-kanasuta/,485,2,1,2,,,,,,32,24,20,Canadian Dollar,,,,,,,,,,,,,,,,,,,,,,,,,,48.1875,-79.39944
2932,mont-la-reserve-saint-donat-de-montcalm,North America,Canada,Quebec,http://www.skiresort.info/ski-resort/mont-la-reserve-saint-donat-de-montcalm/,405,5,2,8,,,0,0,,36,27,24,Canadian Dollar,2.2,2.5,2.9,,,,,,,,,,,,,,,,,0,,,,,0,46.2871277,-74.1793573
2933,mont-labelle,North America,Canada,Quebec,http://www.skiresort.info/ski-resort/mont-labelle/,0,,,,,,,,,0,0,0,-,,,,,,,,,,,,,,,,,,,,,,,,,,46.2803624,-74.733688
2934,mont-lac-vert-hebertville,North America,Canada,Quebec,http://www.skiresort.info/ski-resort/mont-lac-vert-hebertville/,290,4,8,8,,,,,,38,33,28,Canadian Dollar,,,,,,,,,,,,,,,,,,,,,,,,,,48.3560168,-71.6064292
2935,mont-miller,North America,Canada,Quebec,http://www.skiresort.info/ski-resort/mont-miller/,858,2,4,5,,,,,,35,30,23,Canadian Dollar,,,,,,,,,,,,,,,,,,,,,,,,,,48.962167,-65.490784
2936,mont-olympia,North America,Canada,Quebec,http://www.skiresort.info/ski-resort/mont-olympia/,440,,,,,,,,,44.75,40.2,32,Canadian Dollar,,,,,,,,,,,,,,,,,,,,,0,,,,,45.9150573,-74.1235184
2937,mont-orford,North America,Canada,Quebec,http://www.skiresort.info/ski-resort/mont-orford/,850,10,8,12,,,0,,,62,46,35,Canadian Dollar,2.8,3.2,3.5,,,,,,,,,,,,,,,,,,0,0,,,,45.292364,-72.263024
2938,mont-orignal-lac-etchemin,North America,Canada,Quebec,http://www.skiresort.info/ski-resort/mont-orignal-lac-etchemin/,612,4,6,5,,,0,0,,39.95,32,24,Canadian Dollar,2.2,2.6,3.8,,,,,,,,,,,,,,,,,0,,,,,,46.4169444,-70.6
2939,mont-pits-cabano,North America,Canada,Quebec,http://www.skiresort.info/ski-resort/mont-pits-cabano/,204,0.7,0,0,,,,0,,12,0,10,Canadian Dollar,1.2,1,1.5,,,,,,,,,,,,,,,,,,,,,,,47.674838,-68.8804645
2940,mont-pontbriand-closed,North America,Canada,Quebec,http://www.skiresort.info/ski-resort/mont-pontbriand-closed/,0,,,,,,,,,0,0,0,-,,,,,,,,,,,,,,,,,,,,,,,,,,46.0586032,-73.7394726
2941,mont-rigaud,North America,Canada,Quebec,http://www.skiresort.info/ski-resort/mont-rigaud/,174,2,3,4,,,0,,,41,0,37,Canadian Dollar,2,2.3,3,,,,,,,,,,,,,,,,,,0,,,,,45.4680559,-74.3391609
2942,mont-ripley,North America,USA,Michigan,http://www.skiresort.info/ski-resort/mont-ripley/,330,2,2.2,2.7,,,0,0,,45,0,40,US Dollar,1.7,2.1,2.7,,,,,,,,,,,,,,,,,0,,,,,,47.127847,-88.560052
2943,mont-saint-bruno-saint-bruno-de-montarville,North America,Canada,Quebec,http://www.skiresort.info/ski-resort/mont-saint-bruno-saint-bruno-de-montarville/,175,5,3,7,,,,,,36.53,32.62,30.44,Canadian Dollar,,,,,,,,,,,,,,,,,,,,,0,,,,,45.55,-73.3169444
2944,mont-saint-mathieu,North America,Canada,Quebec,http://www.skiresort.info/ski-resort/mont-saint-mathieu/,441,3,3,4,,,0,,,34.55,25.57,23.99,Canadian Dollar,2,2.4,3,,,,,,,,,,,,,,,,,,0,,,,,48.1543463,-69.0105774
2945,mont-saint-sauveur,North America,Canada,Quebec,http://www.skiresort.info/ski-resort/mont-saint-sauveur/,629,10,20,8,,,0,,0,59.99,49.99,39.99,Canadian Dollar,3,3,4,5,5,5,4,4,4,4,3,3,2,4,4,2,5,1,,,,,,,,45.88492,-74.151827
2946,mont-sainte-anne-beaupre,North America,Canada,Quebec,http://www.skiresort.info/ski-resort/mont-sainte-anne-beaupre/,800,15,34,24,,0,0,0,0,79,56,39,Canadian Dollar,3.6,3.9,4.1,,,,,,,,,,,,,,,,,,0,,,,,47.0833333,-70.9333333
2947,mont-sauvage,North America,Canada,Quebec,http://www.skiresort.info/ski-resort/mont-sauvage/,0,,,,,,,,,0,0,0,-,,,,,,,,,,,,,,,,,,,,,,,,,,45.9762125,-74.1557303
2950,mont-shefford,North America,Canada,Quebec,http://www.skiresort.info/ski-resort/mont-shefford/,485,,,,,,,,,0,0,0,-,,,,,,,,,,,,,,,,,,,,,,,,,,45.3669444,-72.6000001
2951,mont-ste-marie,North America,Canada,Quebec,http://www.skiresort.info/ski-resort/mont-ste-marie/,580,5,4,1,,,0,0,,49,35,29,Canadian Dollar,2,2.3,3.8,,,,,,,,,,,,,,,,,,,,,,,45.942639,-75.879152
2952,mont-sutton,North America,Canada,Quebec,http://www.skiresort.info/ski-resort/mont-sutton/,840,6,7,7,,,0,,,62,43,35,Canadian Dollar,2.4,2.8,3.2,,,,,,,,,,,,,,,,,,,,,,,45.1046261,-72.5618618
2953,mont-ti-basse-baie-comeau,North America,Canada,Quebec,http://www.skiresort.info/ski-resort/mont-ti-basse-baie-comeau/,212,4,4,4,,,,,,30,0,15,Canadian Dollar,,,,,,,,,,,,,,,,,,,,,,,,,,49.2896854,-68.1680021
2954,mont-tremblant,North America,Canada,Quebec,http://www.skiresort.info/ski-resort/mont-tremblant/,875,16.6,25.2,37.1,,0,0,,,99,66,56,Canadian Dollar,4,5,4,4,5,5,5,4,3,5,4,4,5,4,4,4,5,3,,,0,,,,,46.1184616,-74.5961852
2956,mont-video,North America,Canada,Quebec,http://www.skiresort.info/ski-resort/mont-video/,460,2,2,4,,,,,,33.27,26.74,23.7,Canadian Dollar,,,,,,,,,,,,,,,,,,,,,,,,,,48.4153556,-77.7816367
2957,mont-villa-saguenay,North America,Canada,Quebec,http://www.skiresort.info/ski-resort/mont-villa-saguenay/,84,0.5,1.5,0,,,,,,0,0,0,-,,,,,,,,,,,,,,,,,,,,,,,,,,48.547996,-71.631341
2958,montage-mountain-resort,North America,USA,Pennsylvania,http://www.skiresort.info/ski-resort/montage-mountain-resort/,594,2,4,3.5,,,0,,,62,0,49,US Dollar,2,2.3,3,,,,,,,,,,,,,,,,,,0,,,,,41.3512429,-75.6629169
2961,montana-snowbowl,North America,USA,Montana,http://www.skiresort.info/ski-resort/montana-snowbowl/,2316,5,12,14,,,0,0,,47,44,20,US Dollar,2.8,3.1,2.9,,,,,,,,,,,,,,,,,0,,,,,,47.014436,-113.999568
2963,montcalm,North America,Canada,Quebec,http://www.skiresort.info/ski-resort/montcalm/,340,4,4,2,,,,,,37,30,25,Canadian Dollar,,,,,,,,,,,,,,,,,,,,,0,,,,,45.9682954,-74.5014563
2994,moose-mountain,North America,USA,Alaska,http://www.skiresort.info/ski-resort/moose-mountain/,595,3,12,10,,,,,,39,34,29,US Dollar,2.5,2.8,1,,,,,,,,,,,,,,,,,,,,,,,64.940556,-147.990556
2998,morin-heights,North America,Canada,Quebec,http://www.skiresort.info/ski-resort/morin-heights/,464,,,,,,,,,46.75,42.25,33.99,Canadian Dollar,,,,,,,,,,,,,,,,,,,,,0,,,,,45.9038257,-74.2457451
3010,mott-mountain,North America,USA,Michigan,http://www.skiresort.info/ski-resort/mott-mountain/,0,,,,,,,,,0,0,0,-,,,,,,,,,,,,,,,,,,,,,,,,,,43.8156886,-84.873687
3013,mount-baldy,North America,Canada,British Columbia,http://www.skiresort.info/ski-resort/mount-baldy/,2303,10,15,10,,,0,,,50,25,10,Canadian Dollar,2.9,3.3,3,,,,,,,,,,,,,,,,,,,,,,,49.151417,-119.2403279
3015,mount-cain,North America,Canada,British Columbia,http://www.skiresort.info/ski-resort/mount-cain/,1768,4,9,7,,,,,,49.5,35,21.25,Canadian Dollar,,,,,,,,,,,,,,,,,,,,,,,,,,50.2286111,-126.3261112
3018,mount-dufour,North America,Canada,Ontario,http://www.skiresort.info/ski-resort/mount-dufour/,410,1.1,0.3,0.6,,,,,,45,40,35,Canadian Dollar,,,,,,,,,,,,,,,,,,,,,,,,,,46.3856917,-82.6362848
3020,mount-evergreen-kenora,North America,Canada,Ontario,http://www.skiresort.info/ski-resort/mount-evergreen-kenora/,401,1.1,0.3,0.8,,,,0,,35,0,30,Canadian Dollar,1.3,1.6,1.5,,,,,,,,,,,,,,,,,,0,,,,,49.7957115,-94.412303
3021,mount-fairweather-atikokan,North America,Canada,Ontario,http://www.skiresort.info/ski-resort/mount-fairweather-atikokan/,206,0.5,0.8,0.3,,,,0,,0,0,0,-,1.3,1.6,1.3,,,,,,,,,,,,,,,,,0,,,,,,48.8063779,-91.5925469
3022,mount-greylock-south-williamstown,North America,USA,Massachusetts,http://www.skiresort.info/ski-resort/mount-greylock-south-williamstown/,481,1.2,3,0.6,,,,,,0,0,0,-,1.5,1.8,1,,,,,,,,,,,,,,,,,0,,,,,,42.6375821,-73.1662155
3026,mount-joy,North America,Canada,Alberta,http://www.skiresort.info/ski-resort/mount-joy/,757,1,1.3,0.7,,,0,,,20,0,15,Canadian Dollar,1.5,1.8,2.9,,,,,,,,,,,,,,,,,0,,,,,,53.100157,-110.157243
3029,mount-maichen,North America,Canada,Yukon,http://www.skiresort.info/ski-resort/mount-maichen/,920,4,3,2,,,,,,25,0,20,Canadian Dollar,,,,,,,,,,,,,,,,,,,,,,,,,,60.1149085,-128.7510399
3030,mount-martin-deep-river,North America,Canada,Ontario,http://www.skiresort.info/ski-resort/mount-martin-deep-river/,144,0.3,0.3,0.3,,,,0,,25,0,0,Canadian Dollar,1.2,1.6,1.5,,,,,,,,,,,,,,,,,,,,,,,46.1129204,-77.5095819
3032,mount-molson-petawawa,North America,Canada,Ontario,http://www.skiresort.info/ski-resort/mount-molson-petawawa/,143,0.1,0.1,0,,,,0,,0,0,0,-,1,1,1.5,,,,,,,,,,,,,,,,,,,,,,,45.8958912,-77.2517031
3035,mount-pakenham,North America,Canada,Ontario,http://www.skiresort.info/ski-resort/mount-pakenham/,223,1,1,0.5,,,,,,36,34,32,Canadian Dollar,,,,,,,,,,,,,,,,,,,,,,,,,,45.3246642,-76.3298963
3038,mount-pleasant,North America,USA,Pennsylvania,http://www.skiresort.info/ski-resort/mount-pleasant/,450,2,2,1,,,0,0,,38,0,33,US Dollar,1.7,2,2.8,,,,,,,,,,,,,,,,,,,,,,,40.1489607,-79.5411497
3040,mount-prospect-lancaster,North America,USA,New Hampshire,http://www.skiresort.info/ski-resort/mount-prospect-lancaster/,520,0.5,0.3,0,,,,,,7,0,5,US Dollar,1.2,1.2,1,,,,,,,,,,,,,,,,,0,,,,,,44.453088,-71.55851
3042,mount-seymour,North America,Canada,British Columbia,http://www.skiresort.info/ski-resort/mount-seymour/,1265,9,9,5,,,0,,,59,45,26,Canadian Dollar,2,3,3,3,4,3,4,4,4,4,2,1,1,3,4,2,5,1,,,0,,,,,49.3933333,-122.9444444
3043,mount-sima,North America,Canada,Yukon,http://www.skiresort.info/ski-resort/mount-sima/,1035,5,3,2,,,0,0,,42,33,20,Canadian Dollar,2,2.3,2.8,,,,,,,,,,,,,,,,,0,,,,,,60.6119143,-135.0453421
3044,mount-ski-gull,North America,USA,Minnesota,http://www.skiresort.info/ski-resort/mount-ski-gull/,443,0.7,0.7,0.7,,,0,,,31,0,24,US Dollar,1.3,1.7,2.5,,,,,,,,,,,,,,,,,0,,,,,,46.4475173,-94.3779162
3045,mount-snow,North America,USA,Vermont,http://www.skiresort.info/ski-resort/mount-snow/,1095,6,46,8,,,0,,,95,0,75,US Dollar,3.4,3.7,3.7,,,,,,,,,,,,,,,,,0,0,,,,,42.9602444,-72.9204014
3047,mount-st-louis-moonstone,North America,Canada,Ontario,http://www.skiresort.info/ski-resort/mount-st-louis-moonstone/,382,7,10,3,,,0,,,57,0,43,Canadian Dollar,2.4,2.7,3.6,,,,,,,,,,,,,,,,,,0,,,,,44.6060377,-79.7019713
3049,mount-timothy,North America,Canada,British Columbia,http://www.skiresort.info/ski-resort/mount-timothy/,1660,6,2,2,,,,,,50,38,30,Canadian Dollar,,,,,,,,,,,,,,,,,,,,,0,,,,,51.9149066,-121.2520607
3050,mount-washington,North America,Canada,British Columbia,http://www.skiresort.info/ski-resort/mount-washington/,1588,12,21,27,,,0,0,,89,74,49,Canadian Dollar,3.4,3.7,3.5,,,,,,,,,,,,,,,,,,0,,,,,49.7530555,-125.2963888
3051,mountain-creek-vernon,North America,USA,New Jersey,http://www.skiresort.info/ski-resort/mountain-creek-vernon/,451,4,14,6,,0,0,,0,69,0,53.99,US Dollar,2.5,2.8,3.4,,,,,,,,,,,,,,,,,,0,,,,,41.1907548,-74.5052234
3053,mountain-high-east,North America,USA,California,http://www.skiresort.info/ski-resort/mountain-high-east/,2496,2,5,4,,,0,,,74,0,35,US Dollar,2.1,2.4,3.9,,,,,,,,,,,,,,,,,,0,,,,,34.3769418,-117.6915242
3054,mountain-high-north,North America,USA,California,http://www.skiresort.info/ski-resort/mountain-high-north/,2287,2,3,0,,,0,,,74,0,35,US Dollar,1.7,1.7,3,,,,,,,,,,,,,,,,,,0,,,,,34.3769418,-117.6915242
3055,mountain-high-west,North America,USA,California,http://www.skiresort.info/ski-resort/mountain-high-west/,2410,3,5,7,,,0,,,74,0,35,US Dollar,2.2,2.5,3.4,,,,,,,,,,,,,,,,,,0,,,,,34.3769418,-117.6915242
3062,mt-abram,North America,USA,Maine,http://www.skiresort.info/ski-resort/mt-abram/,610,3.5,7,4,,,,,,59,0,49,US Dollar,,,,,,,,,,,,,,,,,,,,,0,,,,,44.3695112,-70.7125668
3063,mt-ashland,North America,USA,Oregon,http://www.skiresort.info/ski-resort/mt-ashland/,2286,1,7,5,,,0,,,46,0,36,US Dollar,2.2,2.4,3,,,,,,,,,,,,,,,,,,,,,,,42.0806826,-122.716849
3064,mt-ashwabay-salmo,North America,USA,Wisconsin,http://www.skiresort.info/ski-resort/mt-ashwabay-salmo/,389,1.5,1.2,1.3,,,0,,,24,0,18,US Dollar,1.5,1.9,2.7,,,,,,,,,,,,,,,,,0,,,,,,46.7772283,-90.8945596
3065,mt-bachelor,North America,USA,Oregon,http://www.skiresort.info/ski-resort/mt-bachelor/,2763,15,25,60,,,0,,,96,78,54,US Dollar,4.1,4.4,4,,,,,,,,,,,,,,,,,,0,,,,,44.0032939,-121.6787834
3066,mt-bailey,North America,USA,Oregon,http://www.skiresort.info/ski-resort/mt-bailey/,0,,,,,,,,,350,0,0,US Dollar,,,,,,,,,,,,,,,,,,,,,,,,,0,43.1551252,-122.2205893
3067,mt-baker,North America,USA,Washington State,http://www.skiresort.info/ski-resort/mt-baker/,1525,24,45,31,,,0,,,62,40,30,US Dollar,3.9,4.2,3,,,,,,,,,,,,,,,,,0,,,,,,48.7766868,-121.8144143
3068,mt-baldy,North America,USA,California,http://www.skiresort.info/ski-resort/mt-baldy/,2620,3,6,11,,,0,,,69,49,39,US Dollar,2.5,2.8,3,,,,,,,,,,,,,,,,,,,,,,,34.2363809,-117.6589752
3069,mt-bohemia,North America,USA,Michigan,http://www.skiresort.info/ski-resort/mt-bohemia/,445,0,3,10,,,0,,,59,0,0,US Dollar,2.2,2.2,3,,,,,,,,,,,,,,,,,,,,,,0,47.3885878,-88.0221712
3070,mt-brighton,North America,USA,Michigan,http://www.skiresort.info/ski-resort/mt-brighton/,340,1,3.5,1.7,,,0,,0,63,0,0,US Dollar,1.7,2,2.7,,,,,,,,,,,,,,,,,0,,,,,,42.5407834,-83.8115528
3073,mt-chinguacousy-brampton,North America,Canada,Ontario,http://www.skiresort.info/ski-resort/mt-chinguacousy-brampton/,237,0.1,0,0,,,,,,0,0,0,-,1,1,1,,,,,,,,,,,,,,,,,,0,,,,,43.7271207,-79.7256128
3076,mt-eustis-littleton,North America,USA,New Hampshire,http://www.skiresort.info/ski-resort/mt-eustis-littleton/,0,,,,,,,,,0,0,0,-,,,,,,,,,,,,,,,,,,,,,,,,,,44.2889422,-71.7938203
3077,mt-eyak,North America,USA,Alaska,http://www.skiresort.info/ski-resort/mt-eyak/,366,1,2,2,,,0,,,30,0,20,US Dollar,1.7,2,3,,,,,,,,,,,,,,,,,,,,,,,60.5500012,-145.7499932
3080,mt-holiday,North America,USA,Michigan,http://www.skiresort.info/ski-resort/mt-holiday/,274,1,2,1.5,,,0,,,32,0,26,US Dollar,1.5,1.8,2.6,,,,,,,,,,,,,,,,,0,,,,,,44.7434767,-85.5143504
3081,mt-holly,North America,USA,Michigan,http://www.skiresort.info/ski-resort/mt-holly/,380,1,2.5,3.5,,,,,,43,0,0,US Dollar,,,,,,,,,,,,,,,,,,,,,0,,,,,42.8311924,-83.5620926
3082,mt-hood-meadows,North America,USA,Oregon,http://www.skiresort.info/ski-resort/mt-hood-meadows/,2225,13.5,45,31.5,,,0,,,82,0,49,US Dollar,3.9,4.2,3.9,,,,,,,,,,,,,,,,,,,,,,,45.3317552,-121.6651848
3083,mt-hood-skibowl,North America,USA,Oregon,http://www.skiresort.info/ski-resort/mt-hood-skibowl/,1510,15,15,35,,,0,,,53,0,32,US Dollar,3.4,3.7,2.9,,,,,,,,,,,,,,,,,0,,,,,,45.3017422,-121.7724581
3086,mt-jefferson,North America,USA,Maine,http://www.skiresort.info/ski-resort/mt-jefferson/,230,3,4,2.5,,,,0,,20,0,15,US Dollar,2,2.4,1.4,,,,,,,,,,,,,,,,,0,,,,,,45.3522838,-68.2822408
3087,mt-kato,North America,USA,Minnesota,http://www.skiresort.info/ski-resort/mt-kato/,313,2.5,4.5,5,,,0,,,41,0,33,US Dollar,2.1,2.4,2.9,,,,,,,,,,,,,,,,,0,,,,,,44.1331486,-94.0334256
3090,mt-la-crosse,North America,USA,Wisconsin,http://www.skiresort.info/ski-resort/mt-la-crosse/,372,1.5,3,2.5,,,0,,,51,0,48,US Dollar,1.9,2.2,2.9,,,,,,,,,,,,,,,,,0,,,,,,43.7436241,-91.1829743
3091,mt-lemmon-ski-valley,North America,USA,Arizona,http://www.skiresort.info/ski-resort/mt-lemmon-ski-valley/,2750,2.5,4,2,,,0,,,40,0,20,US Dollar,1.9,2.2,3,,,,,,,,,,,,,,,,,0,,,,,,32.4474562,-110.7816719
3093,mt-mc-sauba,North America,USA,Michigan,http://www.skiresort.info/ski-resort/mt-mc-sauba/,0,,,,,,,,,0,0,0,-,,,,,,,,,,,,,,,,,,,,,,,,,,45.3341746,-85.245344
3094,mt-norquay-banff,North America,Canada,Alberta,http://www.skiresort.info/ski-resort/mt-norquay-banff/,2133,5.1,4.1,7.2,,,0,,,74,56,29,Canadian Dollar,2,3,3,4,4,4,3,4,4,4,3,2,1,4,4,4,4,1,,,0,,,,,51.2014951,-115.5999046
3095,mt-peter,North America,USA,New York,http://www.skiresort.info/ski-resort/mt-peter/,330,1,2,0.8,,,0,,0,49,0,42,US Dollar,1.5,1.8,2.9,,,,,,,,,,,,,,,,,0,,,,,,41.2414828,-74.2907059
3096,mt-pisgah,North America,USA,New York,http://www.skiresort.info/ski-resort/mt-pisgah/,627,1,0,0,,,,0,,20,0,0,US Dollar,1.3,1,1.5,,,,,,,,,,,,,,,,,,,,,,,40.691595,-73.945958
3098,mt-rose,North America,USA,Western United States,http://www.skiresort.info/ski-resort/mt-rose/,2957,20,30,50,,,0,,0,125,0,75,US Dollar,4,4.3,3.5,,,,,,,,,,,,,,,,,,,,,,,39.3437237,-119.9171448
3099,mt-shasta-ski-park,North America,USA,California,http://www.skiresort.info/ski-resort/mt-shasta-ski-park/,2100,5,8,10,,,0,,0,58,0,32,US Dollar,2.5,2.8,3,,,,,,,,,,,,,,,,,,,,,,,41.321106,-122.203502
3100,mt-southington,North America,USA,Connecticut,http://www.skiresort.info/ski-resort/mt-southington/,173,2,3,0.8,,,0,,,58,0,48,US Dollar,1.7,2,3,,,,,,,,,,,,,,,,,0,0,,,,,41.5820605,-72.9249201
3101,mt-spokane,North America,USA,Washington State,http://www.skiresort.info/ski-resort/mt-spokane/,1795,7,5,14,,,0,,,55,0,45,US Dollar,2.7,3,3,,,,,,,,,,,,,,,,,,,,,,,47.9212881,-117.114094
3102,mt-sunapee,North America,USA,New Hampshire,http://www.skiresort.info/ski-resort/mt-sunapee/,828,8,16,6,,,0,,0,84,67,57,US Dollar,2.7,3,3.6,,,,,,,,,,,,,,,,,0,,,,,,43.313611,-72.074167
3103,mt-waterman,North America,USA,California,http://www.skiresort.info/ski-resort/mt-waterman/,2440,2,2,6,,,0,,,50,40,20,US Dollar,2,2.3,3,,,,,,,,,,,,,,,,,,,,,,,34.3493069,-117.9287896
3104,mt-zion-hill,North America,USA,Michigan,http://www.skiresort.info/ski-resort/mt-zion-hill/,0,,,,,,,,,0,0,0,-,,,,,,,,,,,,,,,,,,,,,,,,,,46.4710766,-90.1691548
3122,mulligans-hollow-ski-bowl,North America,USA,Michigan,http://www.skiresort.info/ski-resort/mulligans-hollow-ski-bowl/,233,1,1,1,,,,,,16,0,0,US Dollar,,,,,,,,,,,,,,,,,,,,,,,,,,43.0577903,-86.2397188
3129,murray-ridge,North America,Canada,British Columbia,http://www.skiresort.info/ski-resort/murray-ridge/,1980,7,7,8,,,,,,42,0,31.5,Canadian Dollar,,,,,,,,,,,,,,,,,,,,,,,,,,54.5176907,-124.2105452
3131,mustang-powder-chase,North America,Canada,British Columbia,http://www.skiresort.info/ski-resort/mustang-powder-chase/,0,,,,,,,,,0,0,0,-,,,,,,,,,,,,,,,,,,,,,,,,,0,50.6733866,-119.6447363
3146,mystery-mountain,North America,Canada,Manitoba,http://www.skiresort.info/ski-resort/mystery-mountain/,0,,,,,,,,,35,25,15,Canadian Dollar,,,,,,,,,,,,,,,,,,,,,,,,,,55.871044,-97.7771431
3147,mystic-mountain-farmington,North America,USA,Pennsylvania,http://www.skiresort.info/ski-resort/mystic-mountain-farmington/,619,2.3,1,0.6,,,0,,,43,0,35,US Dollar,1.5,1.8,2.9,,,,,,,,,,,,,,,,,0,,,,,,39.8134861,-79.5460704
3176,nakiska,North America,Canada,Alberta,http://www.skiresort.info/ski-resort/nakiska/,2260,4.2,14.7,6.1,,,0,,0,84.95,63.95,33.95,Canadian Dollar,3,4,4,5,5,4,4,4,4,4,3,2,1,4,5,4,4,1,,,0,,,,,50.9427038,-115.1510985
